{
"type": "FeatureCollection",
"name": "hotosm_ner_education_facilities_points_geojson",
"features": [
{ "type": "Feature", "properties": { "name": "Amokossos", "name:en": null, "amenity": "kindergarten", "building": null, "operator:type": null, "capacity:persons": null, "addr:full": null, "addr:city": null, "source": null, "name:fr": null, "osm_id": 5692579322, "osm_type": "nodes" }, "geometry": { "type": "Point", "coordinates": [ 7.9597387, 17.744394 ] } },
{ "type": "Feature", "properties": { "name": null, "name:en": null, "amenity": "school", "building": null, "operator:type": null, "capacity:persons": null, "addr:full": null, "addr:city": null, "source": null, "name:fr": null, "osm_id": 4618661208, "osm_type": "nodes" }, "geometry": { "type": "Point", "coordinates": [ 11.1082958, 13.4661549 ] } },
{ "type": "Feature", "properties": { "name": "abuja", "name:en": null, "amenity": "school", "building": null, "operator:type": null, "capacity:persons": null, "addr:full": null, "addr:city": null, "source": null, "name:fr": null, "osm_id": 5135485121, "osm_type": "nodes" }, "geometry": { "type": "Point", "coordinates": [ 11.012013, 13.3751093 ] } },
{ "type": "Feature", "properties": { "name": null, "name:en": null, "amenity": "school", "building": null, "operator:type": null, "capacity:persons": null, "addr:full": null, "addr:city": null, "source": null, "name:fr": null, "osm_id": 4618756340, "osm_type": "nodes" }, "geometry": { "type": "Point", "coordinates": [ 11.0960041, 13.4110231 ] } },
{ "type": "Feature", "properties": { "name": null, "name:en": null, "amenity": "school", "building": null, "operator:type": null, "capacity:persons": null, "addr:full": null, "addr:city": null, "source": null, "name:fr": null, "osm_id": 4618756359, "osm_type": "nodes" }, "geometry": { "type": "Point", "coordinates": [ 11.3877009, 13.4235156 ] } },
{ "type": "Feature", "properties": { "name": null, "name:en": null, "amenity": "school", "building": null, "operator:type": null, "capacity:persons": null, "addr:full": null, "addr:city": null, "source": null, "name:fr": null, "osm_id": 4618756358, "osm_type": "nodes" }, "geometry": { "type": "Point", "coordinates": [ 11.3868169, 13.4240374 ] } },
{ "type": "Feature", "properties": { "name": null, "name:en": null, "amenity": "school", "building": null, "operator:type": null, "capacity:persons": null, "addr:full": null, "addr:city": null, "source": null, "name:fr": null, "osm_id": 4618756356, "osm_type": "nodes" }, "geometry": { "type": "Point", "coordinates": [ 11.3905842, 13.4266065 ] } },
{ "type": "Feature", "properties": { "name": null, "name:en": null, "amenity": "school", "building": null, "operator:type": null, "capacity:persons": null, "addr:full": null, "addr:city": null, "source": null, "name:fr": null, "osm_id": 4618756517, "osm_type": "nodes" }, "geometry": { "type": "Point", "coordinates": [ 11.184223, 13.7086239 ] } },
{ "type": "Feature", "properties": { "name": null, "name:en": null, "amenity": "school", "building": null, "operator:type": null, "capacity:persons": null, "addr:full": null, "addr:city": null, "source": null, "name:fr": null, "osm_id": 4618756541, "osm_type": "nodes" }, "geometry": { "type": "Point", "coordinates": [ 11.1812966, 13.7111291 ] } },
{ "type": "Feature", "properties": { "name": null, "name:en": null, "amenity": "school", "building": null, "operator:type": null, "capacity:persons": null, "addr:full": null, "addr:city": null, "source": null, "name:fr": null, "osm_id": 10115036316, "osm_type": "nodes" }, "geometry": { "type": "Point", "coordinates": [ 10.2635522, 13.9870233 ] } },
{ "type": "Feature", "properties": { "name": null, "name:en": null, "amenity": "school", "building": null, "operator:type": null, "capacity:persons": null, "addr:full": null, "addr:city": null, "source": null, "name:fr": null, "osm_id": 4618756519, "osm_type": "nodes" }, "geometry": { "type": "Point", "coordinates": [ 11.187911, 13.7075608 ] } },
{ "type": "Feature", "properties": { "name": null, "name:en": null, "amenity": "school", "building": null, "operator:type": null, "capacity:persons": null, "addr:full": null, "addr:city": null, "source": null, "name:fr": null, "osm_id": 4618756548, "osm_type": "nodes" }, "geometry": { "type": "Point", "coordinates": [ 11.1887899, 13.7021265 ] } },
{ "type": "Feature", "properties": { "name": "CSP Elh Akomili", "name:en": null, "amenity": "school", "building": null, "operator:type": null, "capacity:persons": null, "addr:full": null, "addr:city": null, "source": "survey", "name:fr": null, "osm_id": 4414772610, "osm_type": "nodes" }, "geometry": { "type": "Point", "coordinates": [ 7.976415, 16.9687961 ] } },
{ "type": "Feature", "properties": { "name": "École primaire Nassaraoua", "name:en": null, "amenity": "school", "building": null, "operator:type": null, "capacity:persons": null, "addr:full": null, "addr:city": "Agadez", "source": null, "name:fr": null, "osm_id": 5183831603, "osm_type": "nodes" }, "geometry": { "type": "Point", "coordinates": [ 7.9841012, 16.9693463 ] } },
{ "type": "Feature", "properties": { "name": "École mederesa Dagmanett II", "name:en": null, "amenity": "school", "building": null, "operator:type": null, "capacity:persons": null, "addr:full": null, "addr:city": null, "source": "survey", "name:fr": null, "osm_id": 3642424610, "osm_type": "nodes" }, "geometry": { "type": "Point", "coordinates": [ 7.9637184, 16.957707 ] } },
{ "type": "Feature", "properties": { "name": "CSP Tina", "name:en": null, "amenity": "school", "building": null, "operator:type": null, "capacity:persons": null, "addr:full": null, "addr:city": null, "source": null, "name:fr": null, "osm_id": 3642245477, "osm_type": "nodes" }, "geometry": { "type": "Point", "coordinates": [ 7.991135, 16.9789904 ] } },
{ "type": "Feature", "properties": { "name": "Complexe Scolaire Privé - La Joie des Enfants", "name:en": null, "amenity": "school", "building": null, "operator:type": null, "capacity:persons": null, "addr:full": null, "addr:city": null, "source": "survey", "name:fr": null, "osm_id": 4420512650, "osm_type": "nodes" }, "geometry": { "type": "Point", "coordinates": [ 8.0056775, 16.9755305 ] } },
{ "type": "Feature", "properties": { "name": "École Station Avicole de Maradi", "name:en": null, "amenity": "school", "building": null, "operator:type": null, "capacity:persons": null, "addr:full": null, "addr:city": null, "source": "survey", "name:fr": null, "osm_id": 4314596010, "osm_type": "nodes" }, "geometry": { "type": "Point", "coordinates": [ 7.1346952, 13.4914169 ] } },
{ "type": "Feature", "properties": { "name": "École Suéprieur Management", "name:en": null, "amenity": "college", "building": null, "operator:type": null, "capacity:persons": null, "addr:full": null, "addr:city": null, "source": "survey", "name:fr": null, "osm_id": 4420583315, "osm_type": "nodes" }, "geometry": { "type": "Point", "coordinates": [ 7.9846711, 16.9831392 ] } },
{ "type": "Feature", "properties": { "name": "ESEG d’Agadez", "name:en": null, "amenity": "college", "building": null, "operator:type": null, "capacity:persons": null, "addr:full": null, "addr:city": null, "source": "survey", "name:fr": null, "osm_id": 3642839992, "osm_type": "nodes" }, "geometry": { "type": "Point", "coordinates": [ 7.9890265, 16.9661874 ] } },
{ "type": "Feature", "properties": { "name": null, "name:en": null, "amenity": "school", "building": null, "operator:type": null, "capacity:persons": null, "addr:full": null, "addr:city": null, "source": null, "name:fr": null, "osm_id": 4618861496, "osm_type": "nodes" }, "geometry": { "type": "Point", "coordinates": [ 12.0259973, 13.2051694 ] } },
{ "type": "Feature", "properties": { "name": null, "name:en": null, "amenity": "school", "building": null, "operator:type": null, "capacity:persons": null, "addr:full": null, "addr:city": null, "source": null, "name:fr": null, "osm_id": 4618861505, "osm_type": "nodes" }, "geometry": { "type": "Point", "coordinates": [ 12.0282419, 13.2061847 ] } },
{ "type": "Feature", "properties": { "name": null, "name:en": null, "amenity": "school", "building": null, "operator:type": null, "capacity:persons": null, "addr:full": null, "addr:city": null, "source": null, "name:fr": null, "osm_id": 4618861511, "osm_type": "nodes" }, "geometry": { "type": "Point", "coordinates": [ 12.0333731, 13.2147268 ] } },
{ "type": "Feature", "properties": { "name": null, "name:en": null, "amenity": "school", "building": null, "operator:type": null, "capacity:persons": null, "addr:full": null, "addr:city": null, "source": null, "name:fr": null, "osm_id": 4620257416, "osm_type": "nodes" }, "geometry": { "type": "Point", "coordinates": [ 11.9903757, 13.191184 ] } },
{ "type": "Feature", "properties": { "name": null, "name:en": null, "amenity": "school", "building": null, "operator:type": null, "capacity:persons": null, "addr:full": null, "addr:city": null, "source": null, "name:fr": null, "osm_id": 4620257404, "osm_type": "nodes" }, "geometry": { "type": "Point", "coordinates": [ 11.966296, 13.2466226 ] } },
{ "type": "Feature", "properties": { "name": null, "name:en": null, "amenity": "school", "building": null, "operator:type": null, "capacity:persons": null, "addr:full": null, "addr:city": null, "source": null, "name:fr": null, "osm_id": 4620257405, "osm_type": "nodes" }, "geometry": { "type": "Point", "coordinates": [ 11.9686563, 13.2446488 ] } },
{ "type": "Feature", "properties": { "name": null, "name:en": null, "amenity": "school", "building": null, "operator:type": null, "capacity:persons": null, "addr:full": null, "addr:city": null, "source": null, "name:fr": null, "osm_id": 4618858178, "osm_type": "nodes" }, "geometry": { "type": "Point", "coordinates": [ 12.025073, 13.2207281 ] } },
{ "type": "Feature", "properties": { "name": null, "name:en": null, "amenity": "school", "building": null, "operator:type": null, "capacity:persons": null, "addr:full": null, "addr:city": null, "source": null, "name:fr": null, "osm_id": 4618858176, "osm_type": "nodes" }, "geometry": { "type": "Point", "coordinates": [ 12.0265663, 13.2183709 ] } },
{ "type": "Feature", "properties": { "name": null, "name:en": null, "amenity": "school", "building": null, "operator:type": null, "capacity:persons": null, "addr:full": null, "addr:city": null, "source": null, "name:fr": null, "osm_id": 4618858177, "osm_type": "nodes" }, "geometry": { "type": "Point", "coordinates": [ 12.0264419, 13.2178589 ] } },
{ "type": "Feature", "properties": { "name": null, "name:en": null, "amenity": "school", "building": null, "operator:type": null, "capacity:persons": null, "addr:full": null, "addr:city": null, "source": null, "name:fr": null, "osm_id": 4620257415, "osm_type": "nodes" }, "geometry": { "type": "Point", "coordinates": [ 11.9807363, 13.217582 ] } },
{ "type": "Feature", "properties": { "name": null, "name:en": null, "amenity": "school", "building": null, "operator:type": null, "capacity:persons": null, "addr:full": null, "addr:city": null, "source": null, "name:fr": null, "osm_id": 4618858162, "osm_type": "nodes" }, "geometry": { "type": "Point", "coordinates": [ 12.0244637, 13.2249416 ] } },
{ "type": "Feature", "properties": { "name": null, "name:en": null, "amenity": "school", "building": null, "operator:type": null, "capacity:persons": null, "addr:full": null, "addr:city": null, "source": null, "name:fr": null, "osm_id": 4618858165, "osm_type": "nodes" }, "geometry": { "type": "Point", "coordinates": [ 12.0311028, 13.2233152 ] } },
{ "type": "Feature", "properties": { "name": null, "name:en": null, "amenity": "school", "building": null, "operator:type": null, "capacity:persons": null, "addr:full": null, "addr:city": null, "source": null, "name:fr": null, "osm_id": 4992973221, "osm_type": "nodes" }, "geometry": { "type": "Point", "coordinates": [ 12.0177829, 13.2275892 ] } },
{ "type": "Feature", "properties": { "name": "Ecole Haoussa", "name:en": null, "amenity": "school", "building": null, "operator:type": null, "capacity:persons": null, "addr:full": null, "addr:city": null, "source": "survey", "name:fr": null, "osm_id": 3699275610, "osm_type": "nodes" }, "geometry": { "type": "Point", "coordinates": [ 5.2450841, 13.7944149 ] } },
{ "type": "Feature", "properties": { "name": "GOURAMA 3", "name:en": null, "amenity": "school", "building": null, "operator:type": null, "capacity:persons": null, "addr:full": null, "addr:city": null, "source": null, "name:fr": null, "osm_id": 7713689372, "osm_type": "nodes" }, "geometry": { "type": "Point", "coordinates": [ 5.251725, 13.7990874 ] } },
{ "type": "Feature", "properties": { "name": null, "name:en": null, "amenity": "school", "building": null, "operator:type": null, "capacity:persons": null, "addr:full": null, "addr:city": null, "source": null, "name:fr": null, "osm_id": 4618661206, "osm_type": "nodes" }, "geometry": { "type": "Point", "coordinates": [ 11.0116904, 13.3770722 ] } },
{ "type": "Feature", "properties": { "name": null, "name:en": null, "amenity": "school", "building": null, "operator:type": null, "capacity:persons": null, "addr:full": null, "addr:city": null, "source": null, "name:fr": null, "osm_id": 4620257469, "osm_type": "nodes" }, "geometry": { "type": "Point", "coordinates": [ 12.0378729, 13.1471078 ] } },
{ "type": "Feature", "properties": { "name": null, "name:en": null, "amenity": "school", "building": null, "operator:type": null, "capacity:persons": null, "addr:full": null, "addr:city": null, "source": null, "name:fr": null, "osm_id": 4618858183, "osm_type": "nodes" }, "geometry": { "type": "Point", "coordinates": [ 12.0218488, 13.2175205 ] } },
{ "type": "Feature", "properties": { "name": null, "name:en": null, "amenity": "school", "building": null, "operator:type": null, "capacity:persons": null, "addr:full": null, "addr:city": null, "source": null, "name:fr": null, "osm_id": 4618858161, "osm_type": "nodes" }, "geometry": { "type": "Point", "coordinates": [ 12.0159295, 13.2308374 ] } },
{ "type": "Feature", "properties": { "name": null, "name:en": null, "amenity": "school", "building": null, "operator:type": null, "capacity:persons": null, "addr:full": null, "addr:city": null, "source": null, "name:fr": null, "osm_id": 4618858160, "osm_type": "nodes" }, "geometry": { "type": "Point", "coordinates": [ 12.0148319, 13.2325708 ] } },
{ "type": "Feature", "properties": { "name": null, "name:en": null, "amenity": "school", "building": null, "operator:type": null, "capacity:persons": null, "addr:full": null, "addr:city": null, "source": null, "name:fr": null, "osm_id": 4618756502, "osm_type": "nodes" }, "geometry": { "type": "Point", "coordinates": [ 11.7187441, 13.3485338 ] } },
{ "type": "Feature", "properties": { "name": null, "name:en": null, "amenity": "school", "building": null, "operator:type": null, "capacity:persons": null, "addr:full": null, "addr:city": null, "source": null, "name:fr": null, "osm_id": 4618756492, "osm_type": "nodes" }, "geometry": { "type": "Point", "coordinates": [ 11.4898109, 13.4172348 ] } },
{ "type": "Feature", "properties": { "name": "CES", "name:en": null, "amenity": "school", "building": null, "operator:type": null, "capacity:persons": null, "addr:full": null, "addr:city": null, "source": "bing", "name:fr": null, "osm_id": 3991294157, "osm_type": "nodes" }, "geometry": { "type": "Point", "coordinates": [ 9.2902928, 13.3659439 ] } },
{ "type": "Feature", "properties": { "name": null, "name:en": null, "amenity": "school", "building": null, "operator:type": null, "capacity:persons": null, "addr:full": null, "addr:city": null, "source": null, "name:fr": null, "osm_id": 4618756507, "osm_type": "nodes" }, "geometry": { "type": "Point", "coordinates": [ 11.1775728, 13.705486 ] } },
{ "type": "Feature", "properties": { "name": null, "name:en": null, "amenity": "school", "building": null, "operator:type": null, "capacity:persons": null, "addr:full": null, "addr:city": null, "source": null, "name:fr": null, "osm_id": 4618756534, "osm_type": "nodes" }, "geometry": { "type": "Point", "coordinates": [ 11.1858786, 13.7116019 ] } },
{ "type": "Feature", "properties": { "name": "École primaire kidé", "name:en": null, "amenity": "school", "building": null, "operator:type": null, "capacity:persons": null, "addr:full": null, "addr:city": null, "source": null, "name:fr": null, "osm_id": 10749988885, "osm_type": "nodes" }, "geometry": { "type": "Point", "coordinates": [ 3.0810854, 12.9290497 ] } },
{ "type": "Feature", "properties": { "name": "Ecole Normale Askia Mohamed", "name:en": null, "amenity": "school", "building": null, "operator:type": null, "capacity:persons": null, "addr:full": null, "addr:city": null, "source": null, "name:fr": null, "osm_id": 6161106681, "osm_type": "nodes" }, "geometry": { "type": "Point", "coordinates": [ 7.0972551, 13.4332836 ] } },
{ "type": "Feature", "properties": { "name": "École Primaire Boukoki 4", "name:en": null, "amenity": "school", "building": null, "operator:type": "public", "capacity:persons": null, "addr:full": null, "addr:city": null, "source": "OSMNiger;survey", "name:fr": null, "osm_id": 2722943179, "osm_type": "nodes" }, "geometry": { "type": "Point", "coordinates": [ 2.1268296, 13.5341251 ] } },
{ "type": "Feature", "properties": { "name": "CSP Ibadourahamane", "name:en": null, "amenity": "school", "building": null, "operator:type": "private", "capacity:persons": null, "addr:full": null, "addr:city": null, "source": "OSMNiger", "name:fr": null, "osm_id": 5880247946, "osm_type": "nodes" }, "geometry": { "type": "Point", "coordinates": [ 2.1005344, 13.546476 ] } },
{ "type": "Feature", "properties": { "name": "CSP Humanité", "name:en": null, "amenity": "school", "building": null, "operator:type": "private", "capacity:persons": null, "addr:full": null, "addr:city": null, "source": "OSMNiger", "name:fr": null, "osm_id": 5923138538, "osm_type": "nodes" }, "geometry": { "type": "Point", "coordinates": [ 2.1361345, 13.5049232 ] } },
{ "type": "Feature", "properties": { "name": "École Primaire Goudel 2", "name:en": null, "amenity": "school", "building": null, "operator:type": "public", "capacity:persons": null, "addr:full": null, "addr:city": null, "source": "OSMNiger", "name:fr": null, "osm_id": 6564558285, "osm_type": "nodes" }, "geometry": { "type": "Point", "coordinates": [ 2.0635027, 13.5277798 ] } },
{ "type": "Feature", "properties": { "name": "École Primaire Changarey 2", "name:en": null, "amenity": "school", "building": null, "operator:type": "public", "capacity:persons": null, "addr:full": null, "addr:city": null, "source": "OSMNiger", "name:fr": null, "osm_id": 11266640022, "osm_type": "nodes" }, "geometry": { "type": "Point", "coordinates": [ 2.0919453, 13.6044268 ] } },
{ "type": "Feature", "properties": { "name": "Muslim Hands School Of Excellence Niamey", "name:en": null, "amenity": "school", "building": null, "operator:type": null, "capacity:persons": null, "addr:full": null, "addr:city": null, "source": "OSMNiger", "name:fr": "École d'Excellence Mains de Musulman", "osm_id": 6984265673, "osm_type": "nodes" }, "geometry": { "type": "Point", "coordinates": [ 2.1013201, 13.5637811 ] } },
{ "type": "Feature", "properties": { "name": null, "name:en": null, "amenity": "school", "building": null, "operator:type": null, "capacity:persons": null, "addr:full": null, "addr:city": null, "source": null, "name:fr": null, "osm_id": 4620604241, "osm_type": "nodes" }, "geometry": { "type": "Point", "coordinates": [ 12.6014109, 13.3240753 ] } },
{ "type": "Feature", "properties": { "name": "CSP Noudou", "name:en": null, "amenity": "school", "building": null, "operator:type": "private", "capacity:persons": null, "addr:full": null, "addr:city": null, "source": "OSMNiger;survery", "name:fr": null, "osm_id": 3195285196, "osm_type": "nodes" }, "geometry": { "type": "Point", "coordinates": [ 2.0932335, 13.492988 ] } },
{ "type": "Feature", "properties": { "name": "La Fontaine Collège et Lycée", "name:en": null, "amenity": "school", "building": null, "operator:type": "private", "capacity:persons": null, "addr:full": null, "addr:city": null, "source": "OSMNiger", "name:fr": null, "osm_id": 11375311342, "osm_type": "nodes" }, "geometry": { "type": "Point", "coordinates": [ 2.1014453, 13.5206064 ] } },
{ "type": "Feature", "properties": { "name": "CSP Air Tenere", "name:en": null, "amenity": "school", "building": null, "operator:type": "private", "capacity:persons": null, "addr:full": null, "addr:city": null, "source": "OSMNiger", "name:fr": null, "osm_id": 11375311404, "osm_type": "nodes" }, "geometry": { "type": "Point", "coordinates": [ 2.1148037, 13.5660082 ] } },
{ "type": "Feature", "properties": { "name": "Mederesa", "name:en": null, "amenity": "school", "building": null, "operator:type": "public", "capacity:persons": null, "addr:full": null, "addr:city": "N'Gonga Zarma", "source": "WNA Hub - Ruwa Niger Project", "name:fr": null, "osm_id": 10719239924, "osm_type": "nodes" }, "geometry": { "type": "Point", "coordinates": [ 2.829205, 13.17983 ] } },
{ "type": "Feature", "properties": { "name": "Ecole de Gobirko Banizoumbou", "name:en": null, "amenity": "school", "building": null, "operator:type": "public", "capacity:persons": null, "addr:full": null, "addr:city": "Gobirko Beri Banizounbou", "source": "WNA Hub - Ruwa Niger Project", "name:fr": null, "osm_id": 10719239949, "osm_type": "nodes" }, "geometry": { "type": "Point", "coordinates": [ 2.5141652, 13.1805157 ] } },
{ "type": "Feature", "properties": { "name": "Saga 4", "name:en": null, "amenity": "school", "building": null, "operator:type": "public", "capacity:persons": null, "addr:full": null, "addr:city": null, "source": "OSMNiger", "name:fr": null, "osm_id": 11375311375, "osm_type": "nodes" }, "geometry": { "type": "Point", "coordinates": [ 2.1388655, 13.4701458 ] } },
{ "type": "Feature", "properties": { "name": "Ecole Publique de Tanna Beri", "name:en": null, "amenity": "school", "building": null, "operator:type": "public", "capacity:persons": null, "addr:full": null, "addr:city": "Tanna Beri", "source": "WNA Hub - Ruwa Niger Project", "name:fr": null, "osm_id": 10719239921, "osm_type": "nodes" }, "geometry": { "type": "Point", "coordinates": [ 2.5437833, 13.0471619 ] } },
{ "type": "Feature", "properties": { "name": "Ecole Primaire Kobodey", "name:en": null, "amenity": "school", "building": null, "operator:type": "public", "capacity:persons": null, "addr:full": null, "addr:city": "Kobodey", "source": "WNA Hub - Ruwa Niger Project", "name:fr": null, "osm_id": 10719239938, "osm_type": "nodes" }, "geometry": { "type": "Point", "coordinates": [ 2.5223276, 13.1613706 ] } },
{ "type": "Feature", "properties": { "name": "Ecole Centre", "name:en": null, "amenity": "school", "building": null, "operator:type": "public", "capacity:persons": null, "addr:full": null, "addr:city": "Kannare", "source": "WNA Hub - Ruwa Niger Project", "name:fr": null, "osm_id": 10719239943, "osm_type": "nodes" }, "geometry": { "type": "Point", "coordinates": [ 2.7647604, 13.2430713 ] } },
{ "type": "Feature", "properties": { "name": "Diawando Ecole", "name:en": null, "amenity": "school", "building": null, "operator:type": "public", "capacity:persons": null, "addr:full": null, "addr:city": "Diawando Daney", "source": "WNA Hub - Ruwa Niger Project", "name:fr": null, "osm_id": 10719239956, "osm_type": "nodes" }, "geometry": { "type": "Point", "coordinates": [ 2.7259159, 13.1261597 ] } },
{ "type": "Feature", "properties": { "name": "Ecole Primaire Alzanna Fandou", "name:en": null, "amenity": "school", "building": null, "operator:type": "public", "capacity:persons": null, "addr:full": null, "addr:city": "Alzanna Fandou", "source": "WNA Hub - Ruwa Niger Project", "name:fr": null, "osm_id": 10719239966, "osm_type": "nodes" }, "geometry": { "type": "Point", "coordinates": [ 2.9111895, 13.2024792 ] } },
{ "type": "Feature", "properties": { "name": "Ecole Primaire Guillare", "name:en": null, "amenity": "school", "building": null, "operator:type": "public", "capacity:persons": null, "addr:full": null, "addr:city": "Guillare Zarma", "source": "WNA Hub - Ruwa Niger Project", "name:fr": null, "osm_id": 10719239967, "osm_type": "nodes" }, "geometry": { "type": "Point", "coordinates": [ 2.8358508, 13.1267683 ] } },
{ "type": "Feature", "properties": { "name": "Medersa", "name:en": null, "amenity": "school", "building": null, "operator:type": "private", "capacity:persons": null, "addr:full": null, "addr:city": "Boulel Gaouri Zarma", "source": "WNA Hub - Ruwa Niger Project", "name:fr": null, "osm_id": 10719239968, "osm_type": "nodes" }, "geometry": { "type": "Point", "coordinates": [ 2.8269202, 13.2070842 ] } },
{ "type": "Feature", "properties": { "name": "Ecole Tchede", "name:en": null, "amenity": "school", "building": null, "operator:type": "public", "capacity:persons": null, "addr:full": null, "addr:city": "Tchede Bonhamni", "source": "WNA Hub - Ruwa Niger Project", "name:fr": null, "osm_id": 10719239970, "osm_type": "nodes" }, "geometry": { "type": "Point", "coordinates": [ 2.8428064, 13.1986075 ] } },
{ "type": "Feature", "properties": { "name": "CEG N'Gonga", "name:en": null, "amenity": "school", "building": null, "operator:type": "public", "capacity:persons": null, "addr:full": null, "addr:city": "N'Gonga Zarma", "source": "WNA Hub - Ruwa Niger Project", "name:fr": null, "osm_id": 10719239971, "osm_type": "nodes" }, "geometry": { "type": "Point", "coordinates": [ 2.8251008, 13.1840636 ] } },
{ "type": "Feature", "properties": { "name": "L'Ecole Primaire de Diawando", "name:en": null, "amenity": "school", "building": null, "operator:type": "public", "capacity:persons": null, "addr:full": null, "addr:city": "Diawando", "source": "WNA Hub - Ruwa Niger Project", "name:fr": null, "osm_id": 10017009797, "osm_type": "nodes" }, "geometry": { "type": "Point", "coordinates": [ 2.7402404, 13.1427146 ] } },
{ "type": "Feature", "properties": { "name": "Ecole Primaire Zawa", "name:en": null, "amenity": "school", "building": null, "operator:type": "public", "capacity:persons": null, "addr:full": null, "addr:city": "Zawa", "source": "WNA Hub - Ruwa Niger Project", "name:fr": null, "osm_id": 10719239914, "osm_type": "nodes" }, "geometry": { "type": "Point", "coordinates": [ 2.8873338, 13.1581974 ] } },
{ "type": "Feature", "properties": { "name": "Ecole Primaire", "name:en": null, "amenity": "school", "building": null, "operator:type": "public", "capacity:persons": null, "addr:full": null, "addr:city": "Toudou Djerma", "source": "WNA Hub - Ruwa Niger Project", "name:fr": null, "osm_id": 10719239916, "osm_type": "nodes" }, "geometry": { "type": "Point", "coordinates": [ 2.6533127, 13.1765055 ] } },
{ "type": "Feature", "properties": { "name": "Ecole Primaire de Tinoma", "name:en": null, "amenity": "school", "building": null, "operator:type": "public", "capacity:persons": null, "addr:full": null, "addr:city": "Tinoma", "source": "WNA Hub - Ruwa Niger Project", "name:fr": null, "osm_id": 10719239917, "osm_type": "nodes" }, "geometry": { "type": "Point", "coordinates": [ 2.8754436, 13.2189695 ] } },
{ "type": "Feature", "properties": { "name": "CEG Louloudje", "name:en": null, "amenity": "school", "building": null, "operator:type": "public", "capacity:persons": null, "addr:full": null, "addr:city": "Louloudje Zarma", "source": "WNA Hub - Ruwa Niger Project", "name:fr": null, "osm_id": 10719239928, "osm_type": "nodes" }, "geometry": { "type": "Point", "coordinates": [ 2.9021003, 13.2023086 ] } },
{ "type": "Feature", "properties": { "name": "Ecole Primaire Publique de Louloudje", "name:en": null, "amenity": "school", "building": null, "operator:type": "public", "capacity:persons": null, "addr:full": null, "addr:city": "Louloudje Zarma", "source": "WNA Hub - Ruwa Niger Project", "name:fr": null, "osm_id": 10719239932, "osm_type": "nodes" }, "geometry": { "type": "Point", "coordinates": [ 2.8985012, 13.2082729 ] } },
{ "type": "Feature", "properties": { "name": "Medersa", "name:en": null, "amenity": "school", "building": null, "operator:type": "public", "capacity:persons": null, "addr:full": null, "addr:city": "Kodo", "source": "WNA Hub - Ruwa Niger Project", "name:fr": null, "osm_id": 10719239935, "osm_type": "nodes" }, "geometry": { "type": "Point", "coordinates": [ 2.686123, 13.2334494 ] } },
{ "type": "Feature", "properties": { "name": "Ecole de Boula Korgui", "name:en": null, "amenity": "school", "building": null, "operator:type": "public", "capacity:persons": null, "addr:full": null, "addr:city": "Boula Korgui", "source": "WNA Hub - Ruwa Niger Project", "name:fr": null, "osm_id": 10719239961, "osm_type": "nodes" }, "geometry": { "type": "Point", "coordinates": [ 2.826108, 13.2096208 ] } },
{ "type": "Feature", "properties": { "name": "Ecole Primaire de Boula", "name:en": null, "amenity": "school", "building": null, "operator:type": "public", "capacity:persons": null, "addr:full": null, "addr:city": "Boula Korgui", "source": "WNA Hub - Ruwa Niger Project", "name:fr": null, "osm_id": 10719239963, "osm_type": "nodes" }, "geometry": { "type": "Point", "coordinates": [ 2.8960498, 13.1508847 ] } },
{ "type": "Feature", "properties": { "name": "Jardin d'enfants Kinni 1", "name:en": null, "amenity": "kindergarten", "building": null, "operator:type": null, "capacity:persons": null, "addr:full": null, "addr:city": null, "source": "survey", "name:fr": null, "osm_id": 3699275623, "osm_type": "nodes" }, "geometry": { "type": "Point", "coordinates": [ 5.2505337, 13.7982809 ] } },
{ "type": "Feature", "properties": { "name": "Complexe Scolaire Assemblée de Dieu Zinder Djan Bourou", "name:en": null, "amenity": "school", "building": null, "operator:type": null, "capacity:persons": null, "addr:full": null, "addr:city": null, "source": null, "name:fr": null, "osm_id": 6130562686, "osm_type": "nodes" }, "geometry": { "type": "Point", "coordinates": [ 9.0048033, 13.785075 ] } },
{ "type": "Feature", "properties": { "name": "CES/FA Malbaza", "name:en": null, "amenity": "school", "building": null, "operator:type": null, "capacity:persons": null, "addr:full": null, "addr:city": null, "source": null, "name:fr": null, "osm_id": 9810399555, "osm_type": "nodes" }, "geometry": { "type": "Point", "coordinates": [ 5.498743, 13.9652628 ] } },
{ "type": "Feature", "properties": { "name": "Far'a", "name:en": null, "amenity": "school", "building": null, "operator:type": null, "capacity:persons": null, "addr:full": null, "addr:city": null, "source": null, "name:fr": null, "osm_id": 9810407728, "osm_type": "nodes" }, "geometry": { "type": "Point", "coordinates": [ 5.5051911, 13.9623735 ] } },
{ "type": "Feature", "properties": { "name": "Jardin D'enfant Usine", "name:en": null, "amenity": "school", "building": null, "operator:type": null, "capacity:persons": null, "addr:full": null, "addr:city": null, "source": null, "name:fr": null, "osm_id": 9810407757, "osm_type": "nodes" }, "geometry": { "type": "Point", "coordinates": [ 5.5030534, 13.9618191 ] } },
{ "type": "Feature", "properties": { "name": "Medressa", "name:en": null, "amenity": "school", "building": null, "operator:type": null, "capacity:persons": null, "addr:full": null, "addr:city": null, "source": null, "name:fr": null, "osm_id": 9810407758, "osm_type": "nodes" }, "geometry": { "type": "Point", "coordinates": [ 5.5036944, 13.9611762 ] } },
{ "type": "Feature", "properties": { "name": "Ecole Usine", "name:en": null, "amenity": "school", "building": null, "operator:type": null, "capacity:persons": null, "addr:full": null, "addr:city": null, "source": null, "name:fr": null, "osm_id": 9810407759, "osm_type": "nodes" }, "geometry": { "type": "Point", "coordinates": [ 5.5026537, 13.9606452 ] } },
{ "type": "Feature", "properties": { "name": null, "name:en": null, "amenity": "school", "building": null, "operator:type": null, "capacity:persons": null, "addr:full": null, "addr:city": null, "source": null, "name:fr": null, "osm_id": 6125018658, "osm_type": "nodes" }, "geometry": { "type": "Point", "coordinates": [ 2.4620318, 13.6963911 ] } },
{ "type": "Feature", "properties": { "name": null, "name:en": null, "amenity": "school", "building": null, "operator:type": null, "capacity:persons": null, "addr:full": null, "addr:city": null, "source": null, "name:fr": null, "osm_id": 6125018659, "osm_type": "nodes" }, "geometry": { "type": "Point", "coordinates": [ 2.4841386, 13.6816097 ] } },
{ "type": "Feature", "properties": { "name": "CEG de Azérori", "name:en": null, "amenity": "school", "building": null, "operator:type": null, "capacity:persons": null, "addr:full": null, "addr:city": null, "source": "survey", "name:fr": null, "osm_id": 2609389744, "osm_type": "nodes" }, "geometry": { "type": "Point", "coordinates": [ 5.9054135, 14.1343723 ] } },
{ "type": "Feature", "properties": { "name": "Ecole Primaire Mallamaoua", "name:en": null, "amenity": "school", "building": null, "operator:type": null, "capacity:persons": null, "addr:full": null, "addr:city": null, "source": "survey", "name:fr": null, "osm_id": 2433956620, "osm_type": "nodes" }, "geometry": { "type": "Point", "coordinates": [ 5.9470048, 14.0793318 ] } },
{ "type": "Feature", "properties": { "name": "ECOLE MEDERESSA 1", "name:en": null, "amenity": "school", "building": null, "operator:type": null, "capacity:persons": null, "addr:full": null, "addr:city": null, "source": null, "name:fr": null, "osm_id": 7714625056, "osm_type": "nodes" }, "geometry": { "type": "Point", "coordinates": [ 5.2529984, 13.7991272 ] } },
{ "type": "Feature", "properties": { "name": "C E S FRANCO- ARABE KONNI", "name:en": null, "amenity": "school", "building": null, "operator:type": null, "capacity:persons": null, "addr:full": null, "addr:city": null, "source": "survey", "name:fr": null, "osm_id": 3699275600, "osm_type": "nodes" }, "geometry": { "type": "Point", "coordinates": [ 5.2627232, 13.7898991 ] } },
{ "type": "Feature", "properties": { "name": "C S P Gandou", "name:en": null, "amenity": "school", "building": null, "operator:type": null, "capacity:persons": null, "addr:full": null, "addr:city": null, "source": "survey", "name:fr": null, "osm_id": 3699275603, "osm_type": "nodes" }, "geometry": { "type": "Point", "coordinates": [ 5.2464894, 13.7943399 ] } },
{ "type": "Feature", "properties": { "name": "Mission Catholique", "name:en": null, "amenity": "school", "building": null, "operator:type": null, "capacity:persons": null, "addr:full": null, "addr:city": null, "source": null, "name:fr": null, "osm_id": 7682501148, "osm_type": "nodes" }, "geometry": { "type": "Point", "coordinates": [ 5.2492745, 13.8048651 ] } },
{ "type": "Feature", "properties": { "name": "CEG 25", "name:en": null, "amenity": "school", "building": null, "operator:type": null, "capacity:persons": null, "addr:full": null, "addr:city": null, "source": null, "name:fr": null, "osm_id": 9247751318, "osm_type": "nodes" }, "geometry": { "type": "Point", "coordinates": [ 8.9576173, 13.7967026 ] } },
{ "type": "Feature", "properties": { "name": "École Kourandaga", "name:en": null, "amenity": "school", "building": null, "operator:type": null, "capacity:persons": null, "addr:full": null, "addr:city": null, "source": "survey", "name:fr": null, "osm_id": 4304803371, "osm_type": "nodes" }, "geometry": { "type": "Point", "coordinates": [ 8.9727929, 13.7985621 ] } },
{ "type": "Feature", "properties": { "name": "Ecole dagarka", "name:en": null, "amenity": "school", "building": null, "operator:type": null, "capacity:persons": null, "addr:full": null, "addr:city": null, "source": null, "name:fr": null, "osm_id": 5912203369, "osm_type": "nodes" }, "geometry": { "type": "Point", "coordinates": [ 5.2215627, 13.8032964 ] } },
{ "type": "Feature", "properties": { "name": "CSP ALGO KONNI", "name:en": null, "amenity": "school", "building": null, "operator:type": null, "capacity:persons": null, "addr:full": null, "addr:city": null, "source": null, "name:fr": null, "osm_id": 7714625227, "osm_type": "nodes" }, "geometry": { "type": "Point", "coordinates": [ 5.2456471, 13.8028308 ] } },
{ "type": "Feature", "properties": { "name": "csp le renouveau college", "name:en": null, "amenity": "school", "building": null, "operator:type": null, "capacity:persons": null, "addr:full": null, "addr:city": null, "source": null, "name:fr": null, "osm_id": 7716465377, "osm_type": "nodes" }, "geometry": { "type": "Point", "coordinates": [ 5.2553869, 13.8068509 ] } },
{ "type": "Feature", "properties": { "name": "CSP Enoch Olinga", "name:en": null, "amenity": "school", "building": null, "operator:type": null, "capacity:persons": null, "addr:full": null, "addr:city": null, "source": null, "name:fr": null, "osm_id": 6591897373, "osm_type": "nodes" }, "geometry": { "type": "Point", "coordinates": [ 7.0876737, 13.5496733 ] } },
{ "type": "Feature", "properties": { "name": "CSP SOUNNA", "name:en": null, "amenity": "school", "building": null, "operator:type": null, "capacity:persons": null, "addr:full": null, "addr:city": null, "source": null, "name:fr": null, "osm_id": 7716647232, "osm_type": "nodes" }, "geometry": { "type": "Point", "coordinates": [ 5.2457155, 13.791931 ] } },
{ "type": "Feature", "properties": { "name": "CEG 3 KONNI", "name:en": null, "amenity": "school", "building": null, "operator:type": null, "capacity:persons": null, "addr:full": null, "addr:city": null, "source": null, "name:fr": null, "osm_id": 8051304964, "osm_type": "nodes" }, "geometry": { "type": "Point", "coordinates": [ 5.2232136, 13.7950604 ] } },
{ "type": "Feature", "properties": { "name": "CSP KADADE", "name:en": null, "amenity": "school", "building": null, "operator:type": null, "capacity:persons": null, "addr:full": null, "addr:city": null, "source": null, "name:fr": null, "osm_id": 8051309939, "osm_type": "nodes" }, "geometry": { "type": "Point", "coordinates": [ 5.2687165, 13.7850768 ] } },
{ "type": "Feature", "properties": { "name": "École Primaire Takalmawa", "name:en": null, "amenity": "school", "building": null, "operator:type": null, "capacity:persons": null, "addr:full": null, "addr:city": null, "source": null, "name:fr": null, "osm_id": 11067452073, "osm_type": "nodes" }, "geometry": { "type": "Point", "coordinates": [ 7.1630299, 13.5341816 ] } },
{ "type": "Feature", "properties": { "name": "CEG Franco Arabe Tibiri", "name:en": null, "amenity": "school", "building": null, "operator:type": "public", "capacity:persons": null, "addr:full": null, "addr:city": "Tibiri Gobir", "source": null, "name:fr": null, "osm_id": 10021298638, "osm_type": "nodes" }, "geometry": { "type": "Point", "coordinates": [ 7.0654934, 13.5600905 ] } },
{ "type": "Feature", "properties": { "name": "École National de la Santé Publique Moyen", "name:en": null, "amenity": "college", "building": null, "operator:type": null, "capacity:persons": null, "addr:full": null, "addr:city": null, "source": "survey", "name:fr": null, "osm_id": 4307057401, "osm_type": "nodes" }, "geometry": { "type": "Point", "coordinates": [ 8.9853156, 13.8045168 ] } },
{ "type": "Feature", "properties": { "name": null, "name:en": null, "amenity": "school", "building": null, "operator:type": null, "capacity:persons": null, "addr:full": null, "addr:city": null, "source": null, "name:fr": null, "osm_id": 9202344520, "osm_type": "nodes" }, "geometry": { "type": "Point", "coordinates": [ 4.0695538, 13.8968199 ] } },
{ "type": "Feature", "properties": { "name": "Amataltal", "name:en": null, "amenity": "school", "building": null, "operator:type": null, "capacity:persons": null, "addr:full": null, "addr:city": null, "source": null, "name:fr": null, "osm_id": 6073630388, "osm_type": "nodes" }, "geometry": { "type": "Point", "coordinates": [ 7.0222741, 15.9894329 ] } },
{ "type": "Feature", "properties": { "name": null, "name:en": null, "amenity": "school", "building": null, "operator:type": null, "capacity:persons": null, "addr:full": null, "addr:city": null, "source": null, "name:fr": null, "osm_id": 9187842994, "osm_type": "nodes" }, "geometry": { "type": "Point", "coordinates": [ 4.0204774, 13.8867605 ] } },
{ "type": "Feature", "properties": { "name": null, "name:en": null, "amenity": "school", "building": null, "operator:type": null, "capacity:persons": null, "addr:full": null, "addr:city": null, "source": null, "name:fr": null, "osm_id": 9209476957, "osm_type": "nodes" }, "geometry": { "type": "Point", "coordinates": [ 3.8090237, 13.6378042 ] } },
{ "type": "Feature", "properties": { "name": null, "name:en": null, "amenity": "school", "building": null, "operator:type": null, "capacity:persons": null, "addr:full": null, "addr:city": null, "source": null, "name:fr": null, "osm_id": 9209477812, "osm_type": "nodes" }, "geometry": { "type": "Point", "coordinates": [ 3.8271518, 13.6061057 ] } },
{ "type": "Feature", "properties": { "name": null, "name:en": null, "amenity": "school", "building": null, "operator:type": null, "capacity:persons": null, "addr:full": null, "addr:city": null, "source": null, "name:fr": null, "osm_id": 9202344744, "osm_type": "nodes" }, "geometry": { "type": "Point", "coordinates": [ 4.0968546, 13.9313658 ] } },
{ "type": "Feature", "properties": { "name": "Guiladji School", "name:en": null, "amenity": null, "building": "school", "operator:type": null, "capacity:persons": null, "addr:full": null, "addr:city": null, "source": null, "name:fr": null, "osm_id": 3829154471, "osm_type": "nodes" }, "geometry": { "type": "Point", "coordinates": [ 2.9065785, 12.6185858 ] } },
{ "type": "Feature", "properties": { "name": "École coranique", "name:en": null, "amenity": "school", "building": null, "operator:type": null, "capacity:persons": null, "addr:full": null, "addr:city": null, "source": null, "name:fr": null, "osm_id": 5554196791, "osm_type": "nodes" }, "geometry": { "type": "Point", "coordinates": [ 2.1519851, 13.4898759 ] } },
{ "type": "Feature", "properties": { "name": "ETEC", "name:en": null, "amenity": "school", "building": null, "operator:type": null, "capacity:persons": null, "addr:full": null, "addr:city": null, "source": null, "name:fr": null, "osm_id": 12280837963, "osm_type": "nodes" }, "geometry": { "type": "Point", "coordinates": [ 2.1254524, 13.5178561 ] } },
{ "type": "Feature", "properties": { "name": "CSP AZ- Zarrah", "name:en": null, "amenity": "school", "building": null, "operator:type": null, "capacity:persons": null, "addr:full": null, "addr:city": null, "source": null, "name:fr": null, "osm_id": 3184386465, "osm_type": "nodes" }, "geometry": { "type": "Point", "coordinates": [ 2.0906813, 13.5242619 ] } },
{ "type": "Feature", "properties": { "name": "Evangelical Mission", "name:en": null, "amenity": "school", "building": null, "operator:type": null, "capacity:persons": null, "addr:full": null, "addr:city": null, "source": null, "name:fr": null, "osm_id": 461261148, "osm_type": "nodes" }, "geometry": { "type": "Point", "coordinates": [ 8.9913207, 13.8049677 ] } },
{ "type": "Feature", "properties": { "name": "Ecole Coranique Dinil Islam", "name:en": null, "amenity": "school", "building": null, "operator:type": null, "capacity:persons": null, "addr:full": null, "addr:city": null, "source": null, "name:fr": null, "osm_id": 2451951625, "osm_type": "nodes" }, "geometry": { "type": "Point", "coordinates": [ 8.9940033, 13.8123383 ] } },
{ "type": "Feature", "properties": { "name": null, "name:en": null, "amenity": "school", "building": "residential", "operator:type": null, "capacity:persons": null, "addr:full": null, "addr:city": null, "source": null, "name:fr": null, "osm_id": 2451961299, "osm_type": "nodes" }, "geometry": { "type": "Point", "coordinates": [ 8.966525, 13.810621 ] } },
{ "type": "Feature", "properties": { "name": "École", "name:en": null, "amenity": "school", "building": null, "operator:type": null, "capacity:persons": null, "addr:full": null, "addr:city": null, "source": null, "name:fr": null, "osm_id": 8224951445, "osm_type": "nodes" }, "geometry": { "type": "Point", "coordinates": [ 2.1155865, 13.5653009 ] } },
{ "type": "Feature", "properties": { "name": "M", "name:en": null, "amenity": "school", "building": null, "operator:type": null, "capacity:persons": null, "addr:full": null, "addr:city": null, "source": null, "name:fr": null, "osm_id": 6088954285, "osm_type": "nodes" }, "geometry": { "type": "Point", "coordinates": [ 8.9956903, 13.8040535 ] } },
{ "type": "Feature", "properties": { "name": "csp nouvelle vision primaire", "name:en": null, "amenity": "school", "building": null, "operator:type": null, "capacity:persons": null, "addr:full": null, "addr:city": null, "source": null, "name:fr": null, "osm_id": 8143124349, "osm_type": "nodes" }, "geometry": { "type": "Point", "coordinates": [ 5.2618082, 13.8074303 ] } },
{ "type": "Feature", "properties": { "name": null, "name:en": null, "amenity": "school", "building": null, "operator:type": null, "capacity:persons": null, "addr:full": null, "addr:city": null, "source": null, "name:fr": null, "osm_id": 2354986151, "osm_type": "nodes" }, "geometry": { "type": "Point", "coordinates": [ 13.3023646, 13.7020694 ] } },
{ "type": "Feature", "properties": { "name": "Complexe Scolaire Nouvelle Humanitaire", "name:en": null, "amenity": "college", "building": null, "operator:type": null, "capacity:persons": null, "addr:full": null, "addr:city": null, "source": null, "name:fr": null, "osm_id": 3224990473, "osm_type": "nodes" }, "geometry": { "type": "Point", "coordinates": [ 3.1907615, 13.0460693 ] } },
{ "type": "Feature", "properties": { "name": "Ecole de Ndjariho", "name:en": null, "amenity": "kindergarten", "building": null, "operator:type": null, "capacity:persons": null, "addr:full": null, "addr:city": null, "source": null, "name:fr": null, "osm_id": 3965565563, "osm_type": "nodes" }, "geometry": { "type": "Point", "coordinates": [ 12.7532007, 13.893588 ] } },
{ "type": "Feature", "properties": { "name": null, "name:en": null, "amenity": "school", "building": null, "operator:type": null, "capacity:persons": null, "addr:full": null, "addr:city": null, "source": null, "name:fr": null, "osm_id": 8066202448, "osm_type": "nodes" }, "geometry": { "type": "Point", "coordinates": [ 1.4158883, 13.6955757 ] } },
{ "type": "Feature", "properties": { "name": "CSP Franco Arabe Alkhidma", "name:en": null, "amenity": "school", "building": null, "operator:type": "private_non_profit", "capacity:persons": null, "addr:full": null, "addr:city": null, "source": null, "name:fr": null, "osm_id": 5182677496, "osm_type": "nodes" }, "geometry": { "type": "Point", "coordinates": [ 7.9866547, 16.9665939 ] } },
{ "type": "Feature", "properties": { "name": "CSP MAMAR", "name:en": null, "amenity": "school", "building": null, "operator:type": null, "capacity:persons": null, "addr:full": null, "addr:city": null, "source": null, "name:fr": null, "osm_id": 8051260064, "osm_type": "nodes" }, "geometry": { "type": "Point", "coordinates": [ 5.2262101, 13.7908773 ] } },
{ "type": "Feature", "properties": { "name": "IPSP KONNI", "name:en": null, "amenity": "school", "building": null, "operator:type": null, "capacity:persons": null, "addr:full": null, "addr:city": null, "source": null, "name:fr": null, "osm_id": 8051260065, "osm_type": "nodes" }, "geometry": { "type": "Point", "coordinates": [ 5.2262076, 13.7908788 ] } },
{ "type": "Feature", "properties": { "name": "CSP LEKO HASKE", "name:en": null, "amenity": "school", "building": null, "operator:type": null, "capacity:persons": null, "addr:full": null, "addr:city": null, "source": null, "name:fr": null, "osm_id": 8051322094, "osm_type": "nodes" }, "geometry": { "type": "Point", "coordinates": [ 5.2573126, 13.7942682 ] } },
{ "type": "Feature", "properties": { "name": "C E G 3", "name:en": null, "amenity": "school", "building": null, "operator:type": null, "capacity:persons": null, "addr:full": null, "addr:city": null, "source": null, "name:fr": null, "osm_id": 8042787817, "osm_type": "nodes" }, "geometry": { "type": "Point", "coordinates": [ 12.6077878, 13.324728 ] } },
{ "type": "Feature", "properties": { "name": "LYCEE IDRISS ALAOUMA", "name:en": null, "amenity": "school", "building": null, "operator:type": null, "capacity:persons": null, "addr:full": null, "addr:city": null, "source": null, "name:fr": null, "osm_id": 8042777274, "osm_type": "nodes" }, "geometry": { "type": "Point", "coordinates": [ 12.6126534, 13.3259756 ] } },
{ "type": "Feature", "properties": { "name": "École Primaire Bandaberi", "name:en": "Bandaberi Primary School", "amenity": "school", "building": null, "operator:type": "public", "capacity:persons": null, "addr:full": null, "addr:city": null, "source": "OSMNiger", "name:fr": "École Primaire Bandaberi", "osm_id": 2703832412, "osm_type": "nodes" }, "geometry": { "type": "Point", "coordinates": [ 2.1341835, 13.5276363 ] } },
{ "type": "Feature", "properties": { "name": "Institut des Sciences d'Informatique, d'Economie et de Management ISIEM", "name:en": null, "amenity": "college", "building": null, "operator:type": "private", "capacity:persons": null, "addr:full": "Immeuble pharmacie, 2ème Forage, yantala, BP 13723, Niamey, Niger", "addr:city": null, "source": "servery", "name:fr": null, "osm_id": 5237176171, "osm_type": "nodes" }, "geometry": { "type": "Point", "coordinates": [ 2.0834157, 13.5411586 ] } },
{ "type": "Feature", "properties": { "name": null, "name:en": null, "amenity": "school", "building": null, "operator:type": null, "capacity:persons": null, "addr:full": null, "addr:city": null, "source": null, "name:fr": null, "osm_id": 8014036043, "osm_type": "nodes" }, "geometry": { "type": "Point", "coordinates": [ 0.7293967, 14.5739783 ] } },
{ "type": "Feature", "properties": { "name": "Ecole Louga", "name:en": null, "amenity": "school", "building": null, "operator:type": "public", "capacity:persons": null, "addr:full": null, "addr:city": "Louloudje Peulh", "source": "WNA Hub - Ruwa Niger Project", "name:fr": null, "osm_id": 10719239929, "osm_type": "nodes" }, "geometry": { "type": "Point", "coordinates": [ 2.8571524, 13.2045965 ] } },
{ "type": "Feature", "properties": { "name": "Medersa Barbe Peulh", "name:en": null, "amenity": "school", "building": null, "operator:type": "public", "capacity:persons": null, "addr:full": null, "addr:city": "Barbe Peulh", "source": "WNA Hub - Ruwa Niger Project", "name:fr": null, "osm_id": 10719239915, "osm_type": "nodes" }, "geometry": { "type": "Point", "coordinates": [ 2.8670984, 13.1762106 ] } },
{ "type": "Feature", "properties": { "name": "Medersa", "name:en": null, "amenity": "school", "building": null, "operator:type": "religious", "capacity:persons": null, "addr:full": null, "addr:city": "Guidal", "source": "WNA Hub - Ruwa Niger Project", "name:fr": null, "osm_id": 10719239911, "osm_type": "nodes" }, "geometry": { "type": "Point", "coordinates": [ 2.6205302, 13.0645855 ] } },
{ "type": "Feature", "properties": { "name": "Merdersa Tanna", "name:en": null, "amenity": "school", "building": null, "operator:type": "public", "capacity:persons": null, "addr:full": null, "addr:city": "Tanna Peulh", "source": "WNA Hub - Ruwa Niger Project", "name:fr": null, "osm_id": 10719239919, "osm_type": "nodes" }, "geometry": { "type": "Point", "coordinates": [ 2.5367552, 13.0456612 ] } },
{ "type": "Feature", "properties": { "name": "Ecole Tanna Kaina", "name:en": null, "amenity": "school", "building": null, "operator:type": "public", "capacity:persons": null, "addr:full": null, "addr:city": "Tanna Kaina", "source": "WNA Hub - Ruwa Niger Project", "name:fr": null, "osm_id": 10719239920, "osm_type": "nodes" }, "geometry": { "type": "Point", "coordinates": [ 2.5272936, 13.060764 ] } },
{ "type": "Feature", "properties": { "name": "Ecole Primaire de Guidal", "name:en": null, "amenity": "school", "building": null, "operator:type": "public", "capacity:persons": null, "addr:full": null, "addr:city": "Guidal", "source": "WNA Hub - Ruwa Niger Project", "name:fr": null, "osm_id": 10719239946, "osm_type": "nodes" }, "geometry": { "type": "Point", "coordinates": [ 2.6198398, 13.0640205 ] } },
{ "type": "Feature", "properties": { "name": "École Centre", "name:en": null, "amenity": "school", "building": null, "operator:type": null, "capacity:persons": null, "addr:full": null, "addr:city": null, "source": null, "name:fr": null, "osm_id": 9510787072, "osm_type": "nodes" }, "geometry": { "type": "Point", "coordinates": [ 2.3122158, 13.3406832 ] } },
{ "type": "Feature", "properties": { "name": "Medersa Garoubeye", "name:en": null, "amenity": "school", "building": null, "operator:type": "religious", "capacity:persons": null, "addr:full": null, "addr:city": "Garoubeye", "source": "WNA Hub - Ruwa Niger Project", "name:fr": null, "osm_id": 10719239912, "osm_type": "nodes" }, "geometry": { "type": "Point", "coordinates": [ 2.8975459, 13.2265085 ] } },
{ "type": "Feature", "properties": { "name": "CEG de Hawandaki", "name:en": null, "amenity": "school", "building": null, "operator:type": null, "capacity:persons": null, "addr:full": null, "addr:city": null, "source": null, "name:fr": null, "osm_id": 11080371453, "osm_type": "nodes" }, "geometry": { "type": "Point", "coordinates": [ 8.2391922, 13.3507662 ] } },
{ "type": "Feature", "properties": { "name": "École Primaire Guidan Elh Sambo", "name:en": null, "amenity": "school", "building": null, "operator:type": null, "capacity:persons": null, "addr:full": null, "addr:city": null, "source": null, "name:fr": null, "osm_id": 11079115719, "osm_type": "nodes" }, "geometry": { "type": "Point", "coordinates": [ 8.1454468, 13.2866468 ] } },
{ "type": "Feature", "properties": { "name": "ECOLE PRIMAIRE DE MAkouaroua", "name:en": null, "amenity": "school", "building": null, "operator:type": null, "capacity:persons": null, "addr:full": null, "addr:city": null, "source": null, "name:fr": null, "osm_id": 8001331087, "osm_type": "nodes" }, "geometry": { "type": "Point", "coordinates": [ 3.852033, 12.7920266 ] } },
{ "type": "Feature", "properties": { "name": "CEG de Makouaroua", "name:en": null, "amenity": "school", "building": null, "operator:type": null, "capacity:persons": null, "addr:full": null, "addr:city": null, "source": null, "name:fr": null, "osm_id": 8001338338, "osm_type": "nodes" }, "geometry": { "type": "Point", "coordinates": [ 3.8544604, 12.7878454 ] } },
{ "type": "Feature", "properties": { "name": null, "name:en": null, "amenity": "school", "building": null, "operator:type": null, "capacity:persons": null, "addr:full": null, "addr:city": null, "source": null, "name:fr": null, "osm_id": 5872660817, "osm_type": "nodes" }, "geometry": { "type": "Point", "coordinates": [ 2.1314603, 13.5513365 ] } },
{ "type": "Feature", "properties": { "name": null, "name:en": null, "amenity": "school", "building": null, "operator:type": null, "capacity:persons": null, "addr:full": null, "addr:city": null, "source": null, "name:fr": null, "osm_id": 5872660823, "osm_type": "nodes" }, "geometry": { "type": "Point", "coordinates": [ 2.1395713, 13.5452295 ] } },
{ "type": "Feature", "properties": { "name": null, "name:en": null, "amenity": "school", "building": null, "operator:type": null, "capacity:persons": null, "addr:full": null, "addr:city": null, "source": null, "name:fr": null, "osm_id": 5872660830, "osm_type": "nodes" }, "geometry": { "type": "Point", "coordinates": [ 2.1350974, 13.5434824 ] } },
{ "type": "Feature", "properties": { "name": null, "name:en": null, "amenity": "school", "building": null, "operator:type": null, "capacity:persons": null, "addr:full": null, "addr:city": null, "source": null, "name:fr": null, "osm_id": 5872660844, "osm_type": "nodes" }, "geometry": { "type": "Point", "coordinates": [ 2.1336651, 13.5461943 ] } },
{ "type": "Feature", "properties": { "name": "École des Sourds", "name:en": null, "amenity": "school", "building": null, "operator:type": "public", "capacity:persons": null, "addr:full": null, "addr:city": null, "source": "OSMNiger", "name:fr": null, "osm_id": 11375311160, "osm_type": "nodes" }, "geometry": { "type": "Point", "coordinates": [ 2.1267627, 13.5400113 ] } },
{ "type": "Feature", "properties": { "name": "CEG Laouali Dan Dah", "name:en": null, "amenity": "school", "building": null, "operator:type": "public", "capacity:persons": null, "addr:full": null, "addr:city": null, "source": "OSMNiger", "name:fr": null, "osm_id": 11375311334, "osm_type": "nodes" }, "geometry": { "type": "Point", "coordinates": [ 2.1274574, 13.5420207 ] } },
{ "type": "Feature", "properties": { "name": "CES Moussadey Beri", "name:en": null, "amenity": "school", "building": null, "operator:type": null, "capacity:persons": null, "addr:full": null, "addr:city": null, "source": null, "name:fr": null, "osm_id": 5170751945, "osm_type": "nodes" }, "geometry": { "type": "Point", "coordinates": [ 3.1965306, 13.384153 ] } },
{ "type": "Feature", "properties": { "name": "Ecole préparatoire", "name:en": null, "amenity": "school", "building": null, "operator:type": null, "capacity:persons": null, "addr:full": null, "addr:city": null, "source": null, "name:fr": null, "osm_id": 7994665785, "osm_type": "nodes" }, "geometry": { "type": "Point", "coordinates": [ 5.2452968, 15.1193333 ] } },
{ "type": "Feature", "properties": { "name": null, "name:en": null, "amenity": "school", "building": null, "operator:type": null, "capacity:persons": null, "addr:full": null, "addr:city": null, "source": null, "name:fr": null, "osm_id": 7969152793, "osm_type": "nodes" }, "geometry": { "type": "Point", "coordinates": [ 0.6542874, 13.9885908 ] } },
{ "type": "Feature", "properties": { "name": null, "name:en": null, "amenity": "school", "building": null, "operator:type": null, "capacity:persons": null, "addr:full": null, "addr:city": null, "source": "nigeriase4all.gov.ng", "name:fr": null, "osm_id": 9897661866, "osm_type": "nodes" }, "geometry": { "type": "Point", "coordinates": [ 9.3011916, 12.808773 ] } },
{ "type": "Feature", "properties": { "name": "École Primaire Dan Dodo", "name:en": null, "amenity": "school", "building": null, "operator:type": null, "capacity:persons": null, "addr:full": null, "addr:city": null, "source": null, "name:fr": null, "osm_id": 11078209324, "osm_type": "nodes" }, "geometry": { "type": "Point", "coordinates": [ 8.1381868, 13.3028286 ] } },
{ "type": "Feature", "properties": { "name": null, "name:en": null, "amenity": "school", "building": null, "operator:type": null, "capacity:persons": null, "addr:full": null, "addr:city": null, "source": null, "name:fr": null, "osm_id": 4618861510, "osm_type": "nodes" }, "geometry": { "type": "Point", "coordinates": [ 12.0320354, 13.2125546 ] } },
{ "type": "Feature", "properties": { "name": null, "name:en": null, "amenity": "school", "building": null, "operator:type": null, "capacity:persons": null, "addr:full": null, "addr:city": null, "source": null, "name:fr": null, "osm_id": 4618861514, "osm_type": "nodes" }, "geometry": { "type": "Point", "coordinates": [ 12.0289908, 13.2176306 ] } },
{ "type": "Feature", "properties": { "name": null, "name:en": null, "amenity": "school", "building": null, "operator:type": null, "capacity:persons": null, "addr:full": null, "addr:city": null, "source": null, "name:fr": null, "osm_id": 7944824659, "osm_type": "nodes" }, "geometry": { "type": "Point", "coordinates": [ 0.7527527, 14.2475711 ] } },
{ "type": "Feature", "properties": { "name": null, "name:en": null, "amenity": "school", "building": null, "operator:type": null, "capacity:persons": null, "addr:full": null, "addr:city": null, "source": null, "name:fr": null, "osm_id": 7944824846, "osm_type": "nodes" }, "geometry": { "type": "Point", "coordinates": [ 0.7196564, 14.2365473 ] } },
{ "type": "Feature", "properties": { "name": null, "name:en": null, "amenity": "school", "building": null, "operator:type": null, "capacity:persons": null, "addr:full": null, "addr:city": null, "source": null, "name:fr": null, "osm_id": 7945681078, "osm_type": "nodes" }, "geometry": { "type": "Point", "coordinates": [ 0.9208562, 14.3661564 ] } },
{ "type": "Feature", "properties": { "name": null, "name:en": null, "amenity": "school", "building": null, "operator:type": null, "capacity:persons": null, "addr:full": null, "addr:city": null, "source": "survey", "name:fr": null, "osm_id": 2542700654, "osm_type": "nodes" }, "geometry": { "type": "Point", "coordinates": [ 5.8251658, 15.7220219 ] } },
{ "type": "Feature", "properties": { "name": "C.E.S Ouallam", "name:en": null, "amenity": "school", "building": null, "operator:type": null, "capacity:persons": null, "addr:full": null, "addr:city": null, "source": null, "name:fr": null, "osm_id": 5604863451, "osm_type": "nodes" }, "geometry": { "type": "Point", "coordinates": [ 2.0868289, 14.3210089 ] } },
{ "type": "Feature", "properties": { "name": "École Primaire de Samo Ouest", "name:en": null, "amenity": "school", "building": null, "operator:type": null, "capacity:persons": null, "addr:full": null, "addr:city": null, "source": "survey", "name:fr": null, "osm_id": 2454193262, "osm_type": "nodes" }, "geometry": { "type": "Point", "coordinates": [ 5.5139468, 14.6994661 ] } },
{ "type": "Feature", "properties": { "name": "École Kaley Plateau 2", "name:en": null, "amenity": "school", "building": null, "operator:type": "public", "capacity:persons": null, "addr:full": null, "addr:city": null, "source": "OSMNiger", "name:fr": null, "osm_id": 11375259561, "osm_type": "nodes" }, "geometry": { "type": "Point", "coordinates": [ 2.1520248, 13.5593347 ] } },
{ "type": "Feature", "properties": { "name": "École des Cadres", "name:en": null, "amenity": "college", "building": null, "operator:type": null, "capacity:persons": null, "addr:full": null, "addr:city": null, "source": null, "name:fr": "École des Cadres", "osm_id": 3242235728, "osm_type": "nodes" }, "geometry": { "type": "Point", "coordinates": [ 2.1015875, 13.523878 ] } },
{ "type": "Feature", "properties": { "name": "Jardin d'Enfants Kabia 2", "name:en": null, "amenity": "kindergarten", "building": null, "operator:type": null, "capacity:persons": null, "addr:full": null, "addr:city": null, "source": "survey", "name:fr": null, "osm_id": 4397522834, "osm_type": "nodes" }, "geometry": { "type": "Point", "coordinates": [ 1.4589966, 14.2136142 ] } },
{ "type": "Feature", "properties": { "name": "Jardin d’Enfants Bagadad", "name:en": null, "amenity": "kindergarten", "building": null, "operator:type": null, "capacity:persons": null, "addr:full": null, "addr:city": null, "source": "survey", "name:fr": null, "osm_id": 4397522835, "osm_type": "nodes" }, "geometry": { "type": "Point", "coordinates": [ 1.4583506, 14.2079816 ] } },
{ "type": "Feature", "properties": { "name": "Jardin d’Enfants Mossi Bingui", "name:en": null, "amenity": "kindergarten", "building": null, "operator:type": null, "capacity:persons": null, "addr:full": null, "addr:city": null, "source": "survey", "name:fr": null, "osm_id": 4397522836, "osm_type": "nodes" }, "geometry": { "type": "Point", "coordinates": [ 1.4527089, 14.2191583 ] } },
{ "type": "Feature", "properties": { "name": "Jardin d’Enfants Quartier", "name:en": null, "amenity": "kindergarten", "building": null, "operator:type": null, "capacity:persons": null, "addr:full": null, "addr:city": null, "source": "survey", "name:fr": null, "osm_id": 4397522837, "osm_type": "nodes" }, "geometry": { "type": "Point", "coordinates": [ 1.4562276, 14.205321 ] } },
{ "type": "Feature", "properties": { "name": "Jardin d’Enfants de Daiberi", "name:en": null, "amenity": "kindergarten", "building": null, "operator:type": null, "capacity:persons": null, "addr:full": null, "addr:city": null, "source": "survey", "name:fr": null, "osm_id": 4397522838, "osm_type": "nodes" }, "geometry": { "type": "Point", "coordinates": [ 1.5063463, 14.1632883 ] } },
{ "type": "Feature", "properties": { "name": "Al Itqam", "name:en": null, "amenity": "kindergarten", "building": null, "operator:type": null, "capacity:persons": null, "addr:full": null, "addr:city": null, "source": "servey", "name:fr": null, "osm_id": 4470162847, "osm_type": "nodes" }, "geometry": { "type": "Point", "coordinates": [ 2.1293481, 13.5600542 ] } },
{ "type": "Feature", "properties": { "name": "jardin d'enfants Konni 2", "name:en": null, "amenity": "kindergarten", "building": null, "operator:type": null, "capacity:persons": null, "addr:full": null, "addr:city": null, "source": "survey", "name:fr": null, "osm_id": 3699275726, "osm_type": "nodes" }, "geometry": { "type": "Point", "coordinates": [ 5.2448299, 13.7916366 ] } },
{ "type": "Feature", "properties": { "name": "Ecole Coranique Madaratul Tazquiyatul Wuldani Curan Garin Malam", "name:en": null, "amenity": "school", "building": null, "operator:type": null, "capacity:persons": null, "addr:full": null, "addr:city": null, "source": "survey", "name:fr": null, "osm_id": 4422468920, "osm_type": "nodes" }, "geometry": { "type": "Point", "coordinates": [ 8.9960574, 13.812934 ] } },
{ "type": "Feature", "properties": { "name": "CSP Mamar", "name:en": null, "amenity": "school", "building": null, "operator:type": null, "capacity:persons": null, "addr:full": null, "addr:city": null, "source": "survey", "name:fr": null, "osm_id": 4420582947, "osm_type": "nodes" }, "geometry": { "type": "Point", "coordinates": [ 7.9835666, 16.9849186 ] } },
{ "type": "Feature", "properties": { "name": "CSI Dagmanet", "name:en": null, "amenity": "school", "building": null, "operator:type": null, "capacity:persons": null, "addr:full": null, "addr:city": null, "source": "survey", "name:fr": null, "osm_id": 3642746375, "osm_type": "nodes" }, "geometry": { "type": "Point", "coordinates": [ 7.971947, 16.9594502 ] } },
{ "type": "Feature", "properties": { "name": "CSP IBADA", "name:en": null, "amenity": "school", "building": null, "operator:type": null, "capacity:persons": null, "addr:full": null, "addr:city": null, "source": null, "name:fr": null, "osm_id": 12104449327, "osm_type": "nodes" }, "geometry": { "type": "Point", "coordinates": [ 1.5588352, 13.8547694 ] } },
{ "type": "Feature", "properties": { "name": null, "name:en": null, "amenity": "school", "building": null, "operator:type": null, "capacity:persons": null, "addr:full": null, "addr:city": null, "source": null, "name:fr": null, "osm_id": 12104449340, "osm_type": "nodes" }, "geometry": { "type": "Point", "coordinates": [ 1.559057, 13.8558597 ] } },
{ "type": "Feature", "properties": { "name": "CEG FRANCO-ARABE", "name:en": null, "amenity": "school", "building": null, "operator:type": null, "capacity:persons": null, "addr:full": null, "addr:city": null, "source": null, "name:fr": null, "osm_id": 12104449342, "osm_type": "nodes" }, "geometry": { "type": "Point", "coordinates": [ 1.5597733, 13.8601145 ] } },
{ "type": "Feature", "properties": { "name": "Maahad cheik Mamadou Adji (Medersa ecole coranique)", "name:en": null, "amenity": "school", "building": null, "operator:type": null, "capacity:persons": null, "addr:full": null, "addr:city": null, "source": "survey", "name:fr": null, "osm_id": 4308482612, "osm_type": "nodes" }, "geometry": { "type": "Point", "coordinates": [ 9.0014889, 13.7983229 ] } },
{ "type": "Feature", "properties": { "name": "Ecole des Surveillants d'Elevage", "name:en": null, "amenity": "school", "building": null, "operator:type": null, "capacity:persons": null, "addr:full": null, "addr:city": null, "source": "survey", "name:fr": null, "osm_id": 4318254841, "osm_type": "nodes" }, "geometry": { "type": "Point", "coordinates": [ 7.1036877, 13.4863705 ] } },
{ "type": "Feature", "properties": { "name": "CES Moussa Djermakoy", "name:en": null, "amenity": "school", "building": null, "operator:type": null, "capacity:persons": null, "addr:full": null, "addr:city": null, "source": "survey", "name:fr": null, "osm_id": 3642483024, "osm_type": "nodes" }, "geometry": { "type": "Point", "coordinates": [ 7.9679173, 16.9602788 ] } },
{ "type": "Feature", "properties": { "name": "Ecole Nassaraoua", "name:en": null, "amenity": "school", "building": null, "operator:type": null, "capacity:persons": null, "addr:full": null, "addr:city": null, "source": "survey", "name:fr": null, "osm_id": 2511407116, "osm_type": "nodes" }, "geometry": { "type": "Point", "coordinates": [ 5.2680004, 14.8821181 ] } },
{ "type": "Feature", "properties": { "name": "École Coranique", "name:en": null, "amenity": "school", "building": null, "operator:type": null, "capacity:persons": null, "addr:full": null, "addr:city": null, "source": "survey", "name:fr": null, "osm_id": 4404023688, "osm_type": "nodes" }, "geometry": { "type": "Point", "coordinates": [ 5.266807, 14.8936655 ] } },
{ "type": "Feature", "properties": { "name": "Ecole Primaire Mederessa Daiberi", "name:en": null, "amenity": "school", "building": null, "operator:type": null, "capacity:persons": null, "addr:full": null, "addr:city": null, "source": "survey", "name:fr": null, "osm_id": 4397522800, "osm_type": "nodes" }, "geometry": { "type": "Point", "coordinates": [ 1.5073881, 14.1617085 ] } },
{ "type": "Feature", "properties": { "name": "Ecole Primaire Mederessa Kabia", "name:en": null, "amenity": "school", "building": null, "operator:type": null, "capacity:persons": null, "addr:full": null, "addr:city": null, "source": "survey", "name:fr": null, "osm_id": 4397522801, "osm_type": "nodes" }, "geometry": { "type": "Point", "coordinates": [ 1.4599085, 14.2157894 ] } },
{ "type": "Feature", "properties": { "name": "Ecole Primaire Quartier Madina", "name:en": null, "amenity": "school", "building": null, "operator:type": null, "capacity:persons": null, "addr:full": null, "addr:city": null, "source": "survey", "name:fr": null, "osm_id": 4397522802, "osm_type": "nodes" }, "geometry": { "type": "Point", "coordinates": [ 1.4628645, 14.2040654 ] } },
{ "type": "Feature", "properties": { "name": "Ecole Primaire Traditionnelle de Daiberi", "name:en": null, "amenity": "school", "building": null, "operator:type": null, "capacity:persons": null, "addr:full": null, "addr:city": null, "source": "survey", "name:fr": null, "osm_id": 4397522804, "osm_type": "nodes" }, "geometry": { "type": "Point", "coordinates": [ 1.5066009, 14.1637904 ] } },
{ "type": "Feature", "properties": { "name": "CES Tillabéri", "name:en": null, "amenity": "school", "building": null, "operator:type": null, "capacity:persons": null, "addr:full": null, "addr:city": null, "source": "survey", "name:fr": null, "osm_id": 4397522650, "osm_type": "nodes" }, "geometry": { "type": "Point", "coordinates": [ 1.4527942, 14.2179522 ] } },
{ "type": "Feature", "properties": { "name": "Centre de Formation aux Metiers", "name:en": null, "amenity": "school", "building": null, "operator:type": null, "capacity:persons": null, "addr:full": null, "addr:city": null, "source": "survey", "name:fr": null, "osm_id": 4397522660, "osm_type": "nodes" }, "geometry": { "type": "Point", "coordinates": [ 1.5092592, 14.1630115 ] } },
{ "type": "Feature", "properties": { "name": "École Experimental", "name:en": null, "amenity": "school", "building": null, "operator:type": null, "capacity:persons": null, "addr:full": null, "addr:city": null, "source": "survey", "name:fr": null, "osm_id": 4397526558, "osm_type": "nodes" }, "geometry": { "type": "Point", "coordinates": [ 1.4578722, 14.2084603 ] } },
{ "type": "Feature", "properties": { "name": "École Medressa Zongo", "name:en": null, "amenity": "school", "building": null, "operator:type": null, "capacity:persons": null, "addr:full": null, "addr:city": null, "source": "survey", "name:fr": null, "osm_id": 4397526559, "osm_type": "nodes" }, "geometry": { "type": "Point", "coordinates": [ 1.4573908, 14.2045991 ] } },
{ "type": "Feature", "properties": { "name": "École Primaire Kabia 1", "name:en": null, "amenity": "school", "building": null, "operator:type": null, "capacity:persons": null, "addr:full": null, "addr:city": null, "source": "survey", "name:fr": null, "osm_id": 4397526561, "osm_type": "nodes" }, "geometry": { "type": "Point", "coordinates": [ 1.457274, 14.2152194 ] } },
{ "type": "Feature", "properties": { "name": "Ahbaboul-lah", "name:en": null, "amenity": "school", "building": null, "operator:type": null, "capacity:persons": null, "addr:full": null, "addr:city": null, "source": null, "name:fr": null, "osm_id": 11832596444, "osm_type": "nodes" }, "geometry": { "type": "Point", "coordinates": [ 2.1265899, 13.5722909 ] } },
{ "type": "Feature", "properties": { "name": "Ecole primaire", "name:en": null, "amenity": "school", "building": null, "operator:type": null, "capacity:persons": null, "addr:full": null, "addr:city": null, "source": null, "name:fr": null, "osm_id": 12108669728, "osm_type": "nodes" }, "geometry": { "type": "Point", "coordinates": [ 1.5700628, 13.8545404 ] } },
{ "type": "Feature", "properties": { "name": "ECOLE GARCON", "name:en": null, "amenity": "school", "building": null, "operator:type": null, "capacity:persons": null, "addr:full": null, "addr:city": null, "source": null, "name:fr": null, "osm_id": 12114417234, "osm_type": "nodes" }, "geometry": { "type": "Point", "coordinates": [ 13.1144947, 14.2576528 ] } },
{ "type": "Feature", "properties": { "name": "CSP LE FLAMBEAU", "name:en": null, "amenity": "school", "building": null, "operator:type": null, "capacity:persons": null, "addr:full": null, "addr:city": null, "source": null, "name:fr": null, "osm_id": 8051340036, "osm_type": "nodes" }, "geometry": { "type": "Point", "coordinates": [ 5.2490596, 13.7871803 ] } },
{ "type": "Feature", "properties": { "name": "Garbado 2", "name:en": null, "amenity": "school", "building": null, "operator:type": "public", "capacity:persons": null, "addr:full": null, "addr:city": null, "source": "OSMNiger", "name:fr": null, "osm_id": 11375311103, "osm_type": "nodes" }, "geometry": { "type": "Point", "coordinates": [ 2.1471547, 13.5206765 ] } },
{ "type": "Feature", "properties": { "name": "CSP Imam Malick 2", "name:en": null, "amenity": "school", "building": null, "operator:type": "private", "capacity:persons": null, "addr:full": null, "addr:city": null, "source": "OSMNiger", "name:fr": null, "osm_id": 11375311304, "osm_type": "nodes" }, "geometry": { "type": "Point", "coordinates": [ 2.1423315, 13.5225743 ] } },
{ "type": "Feature", "properties": { "name": "CSP Djafar Iboun Abi Talib", "name:en": null, "amenity": "school", "building": null, "operator:type": "private", "capacity:persons": null, "addr:full": null, "addr:city": null, "source": "OSMNiger", "name:fr": null, "osm_id": 5910644033, "osm_type": "nodes" }, "geometry": { "type": "Point", "coordinates": [ 2.1443483, 13.5286602 ] } },
{ "type": "Feature", "properties": { "name": "CSP Alheri", "name:en": null, "amenity": "school", "building": null, "operator:type": "private", "capacity:persons": null, "addr:full": null, "addr:city": null, "source": "OSMNiger", "name:fr": null, "osm_id": 11375311355, "osm_type": "nodes" }, "geometry": { "type": "Point", "coordinates": [ 2.1435492, 13.5292567 ] } },
{ "type": "Feature", "properties": { "name": "Al-Burhan", "name:en": null, "amenity": "school", "building": null, "operator:type": "private", "capacity:persons": null, "addr:full": null, "addr:city": null, "source": "OSMNiger", "name:fr": null, "osm_id": 11375311076, "osm_type": "nodes" }, "geometry": { "type": "Point", "coordinates": [ 2.1440501, 13.5569069 ] } },
{ "type": "Feature", "properties": { "name": "Lamartine", "name:en": null, "amenity": "school", "building": null, "operator:type": "private", "capacity:persons": null, "addr:full": null, "addr:city": null, "source": "OSMNiger", "name:fr": null, "osm_id": 11375311179, "osm_type": "nodes" }, "geometry": { "type": "Point", "coordinates": [ 2.1291012, 13.5606791 ] } },
{ "type": "Feature", "properties": { "name": "ECOLE MEDRESSA", "name:en": null, "amenity": "school", "building": null, "operator:type": null, "capacity:persons": null, "addr:full": null, "addr:city": null, "source": null, "name:fr": null, "osm_id": 5250122324, "osm_type": "nodes" }, "geometry": { "type": "Point", "coordinates": [ 13.1143779, 14.2565894 ] } },
{ "type": "Feature", "properties": { "name": "Garbado 1", "name:en": null, "amenity": "school", "building": null, "operator:type": "public", "capacity:persons": null, "addr:full": null, "addr:city": null, "source": "OSMNiger", "name:fr": null, "osm_id": 11375311218, "osm_type": "nodes" }, "geometry": { "type": "Point", "coordinates": [ 2.1499086, 13.5230602 ] } },
{ "type": "Feature", "properties": { "name": "CSP Kokaïna", "name:en": null, "amenity": "school", "building": null, "operator:type": "private", "capacity:persons": null, "addr:full": null, "addr:city": null, "source": "OSMNiger", "name:fr": null, "osm_id": 11375311372, "osm_type": "nodes" }, "geometry": { "type": "Point", "coordinates": [ 2.1472078, 13.5294102 ] } },
{ "type": "Feature", "properties": { "name": "CEG de Bandio", "name:en": null, "amenity": "school", "building": null, "operator:type": null, "capacity:persons": null, "addr:full": null, "addr:city": null, "source": null, "name:fr": null, "osm_id": 10213958907, "osm_type": "nodes" }, "geometry": { "type": "Point", "coordinates": [ 1.0793333, 13.8908489 ] } },
{ "type": "Feature", "properties": { "name": "Ecole Mounwadata 1", "name:en": null, "amenity": "school", "building": null, "operator:type": null, "capacity:persons": null, "addr:full": null, "addr:city": null, "source": "survey", "name:fr": null, "osm_id": 3699275618, "osm_type": "nodes" }, "geometry": { "type": "Point", "coordinates": [ 5.2448186, 13.7907202 ] } },
{ "type": "Feature", "properties": { "name": "Ecole Mounwadata 2", "name:en": null, "amenity": "school", "building": null, "operator:type": null, "capacity:persons": null, "addr:full": null, "addr:city": null, "source": "survey", "name:fr": null, "osm_id": 3699275619, "osm_type": "nodes" }, "geometry": { "type": "Point", "coordinates": [ 5.2449104, 13.791077 ] } },
{ "type": "Feature", "properties": { "name": null, "name:en": null, "amenity": "school", "building": null, "operator:type": null, "capacity:persons": null, "addr:full": null, "addr:city": null, "source": null, "name:fr": null, "osm_id": 7850221106, "osm_type": "nodes" }, "geometry": { "type": "Point", "coordinates": [ 2.3535194, 14.9821035 ] } },
{ "type": "Feature", "properties": { "name": null, "name:en": null, "amenity": "school", "building": null, "operator:type": null, "capacity:persons": null, "addr:full": null, "addr:city": null, "source": null, "name:fr": null, "osm_id": 7850221127, "osm_type": "nodes" }, "geometry": { "type": "Point", "coordinates": [ 2.359485, 14.9896211 ] } },
{ "type": "Feature", "properties": { "name": null, "name:en": null, "amenity": "school", "building": null, "operator:type": null, "capacity:persons": null, "addr:full": null, "addr:city": null, "source": null, "name:fr": null, "osm_id": 7850221101, "osm_type": "nodes" }, "geometry": { "type": "Point", "coordinates": [ 2.3177409, 15.2703309 ] } },
{ "type": "Feature", "properties": { "name": "École Primaire Route Filingué 7", "name:en": null, "amenity": "school", "building": null, "operator:type": "public", "capacity:persons": null, "addr:full": null, "addr:city": null, "source": "OSMNiger", "name:fr": null, "osm_id": 11375259564, "osm_type": "nodes" }, "geometry": { "type": "Point", "coordinates": [ 2.1899466, 13.5160233 ] } },
{ "type": "Feature", "properties": { "name": "École Primaire Sékomé", "name:en": null, "amenity": "school", "building": null, "operator:type": null, "capacity:persons": null, "addr:full": null, "addr:city": null, "source": "survey", "name:fr": null, "osm_id": 4100033989, "osm_type": "nodes" }, "geometry": { "type": "Point", "coordinates": [ 0.5607788, 14.0275912 ] } },
{ "type": "Feature", "properties": { "name": "CES Bilingue d'Amitié Kano-Niger", "name:en": null, "amenity": "school", "building": null, "operator:type": "public", "capacity:persons": null, "addr:full": null, "addr:city": null, "source": "OSMNiger", "name:fr": null, "osm_id": 11375311390, "osm_type": "nodes" }, "geometry": { "type": "Point", "coordinates": [ 2.1932438, 13.5096034 ] } },
{ "type": "Feature", "properties": { "name": "Koido", "name:en": null, "amenity": "school", "building": null, "operator:type": "public", "capacity:persons": null, "addr:full": null, "addr:city": null, "source": "OSMNiger", "name:fr": null, "osm_id": 11375310914, "osm_type": "nodes" }, "geometry": { "type": "Point", "coordinates": [ 2.1541414, 13.4918206 ] } },
{ "type": "Feature", "properties": { "name": "Madrasatu Muril Islam", "name:en": null, "amenity": "school", "building": null, "operator:type": null, "capacity:persons": null, "addr:full": null, "addr:city": null, "source": "survey", "name:fr": null, "osm_id": 4314707040, "osm_type": "nodes" }, "geometry": { "type": "Point", "coordinates": [ 7.1243323, 13.4889889 ] } },
{ "type": "Feature", "properties": { "name": "CSP YANTALA", "name:en": null, "amenity": "school", "building": null, "operator:type": "private", "capacity:persons": null, "addr:full": null, "addr:city": null, "source": "survey", "name:fr": null, "osm_id": 3180529571, "osm_type": "nodes" }, "geometry": { "type": "Point", "coordinates": [ 2.0778286, 13.5370017 ] } },
{ "type": "Feature", "properties": { "name": "Centre de Formation Professionnelle et Technique - CFPT", "name:en": null, "amenity": "college", "building": null, "operator:type": null, "capacity:persons": null, "addr:full": null, "addr:city": null, "source": "survey", "name:fr": null, "osm_id": 4397522659, "osm_type": "nodes" }, "geometry": { "type": "Point", "coordinates": [ 1.4668777, 14.2050741 ] } },
{ "type": "Feature", "properties": { "name": "École National de la Santé Publique Supérieur", "name:en": null, "amenity": "college", "building": null, "operator:type": null, "capacity:persons": null, "addr:full": null, "addr:city": null, "source": "survey", "name:fr": null, "osm_id": 4306980674, "osm_type": "nodes" }, "geometry": { "type": "Point", "coordinates": [ 8.9834277, 13.8030795 ] } },
{ "type": "Feature", "properties": { "name": "CSP Koulmane", "name:en": null, "amenity": "school", "building": null, "operator:type": null, "capacity:persons": null, "addr:full": null, "addr:city": null, "source": "survey", "name:fr": null, "osm_id": 5272579014, "osm_type": "nodes" }, "geometry": { "type": "Point", "coordinates": [ 5.2595946, 14.9005048 ] } },
{ "type": "Feature", "properties": { "name": null, "name:en": null, "amenity": "school", "building": null, "operator:type": null, "capacity:persons": null, "addr:full": null, "addr:city": null, "source": null, "name:fr": null, "osm_id": 5272595894, "osm_type": "nodes" }, "geometry": { "type": "Point", "coordinates": [ 5.2615701, 14.9000823 ] } },
{ "type": "Feature", "properties": { "name": "CES BALLEYARA.", "name:en": null, "amenity": "school", "building": null, "operator:type": null, "capacity:persons": null, "addr:full": null, "addr:city": null, "source": null, "name:fr": null, "osm_id": 7819546285, "osm_type": "nodes" }, "geometry": { "type": "Point", "coordinates": [ 2.9456226, 13.7785175 ] } },
{ "type": "Feature", "properties": { "name": "école Primaire de Gouriabon", "name:en": null, "amenity": "school", "building": null, "operator:type": null, "capacity:persons": null, "addr:full": null, "addr:city": null, "source": null, "name:fr": null, "osm_id": 10196612752, "osm_type": "nodes" }, "geometry": { "type": "Point", "coordinates": [ 0.5554483, 14.0369536 ] } },
{ "type": "Feature", "properties": { "name": null, "name:en": null, "amenity": "school", "building": null, "operator:type": null, "capacity:persons": null, "addr:full": null, "addr:city": null, "source": null, "name:fr": null, "osm_id": 5254216823, "osm_type": "nodes" }, "geometry": { "type": "Point", "coordinates": [ 13.1145648, 14.2575875 ] } },
{ "type": "Feature", "properties": { "name": null, "name:en": null, "amenity": "school", "building": null, "operator:type": null, "capacity:persons": null, "addr:full": null, "addr:city": null, "source": null, "name:fr": null, "osm_id": 5245631421, "osm_type": "nodes" }, "geometry": { "type": "Point", "coordinates": [ 13.1971593, 15.3307055 ] } },
{ "type": "Feature", "properties": { "name": "CSP Liptako Téra", "name:en": null, "amenity": "school", "building": null, "operator:type": "private", "capacity:persons": null, "addr:full": null, "addr:city": null, "source": null, "name:fr": null, "osm_id": 10188849657, "osm_type": "nodes" }, "geometry": { "type": "Point", "coordinates": [ 0.7427781, 14.0034213 ] } },
{ "type": "Feature", "properties": { "name": null, "name:en": null, "amenity": "school", "building": null, "operator:type": null, "capacity:persons": null, "addr:full": null, "addr:city": null, "source": null, "name:fr": null, "osm_id": 5225275429, "osm_type": "nodes" }, "geometry": { "type": "Point", "coordinates": [ 2.7485995, 13.1324208 ] } },
{ "type": "Feature", "properties": { "name": null, "name:en": null, "amenity": "school", "building": null, "operator:type": null, "capacity:persons": null, "addr:full": null, "addr:city": null, "source": null, "name:fr": null, "osm_id": 4620571332, "osm_type": "nodes" }, "geometry": { "type": "Point", "coordinates": [ 12.5879208, 13.309804 ] } },
{ "type": "Feature", "properties": { "name": "Ecole Primaire Kochimi Lala de Galma Nomade", "name:en": null, "amenity": "school", "building": null, "operator:type": null, "capacity:persons": null, "addr:full": null, "addr:city": null, "source": "survey", "name:fr": null, "osm_id": 2449595936, "osm_type": "nodes" }, "geometry": { "type": "Point", "coordinates": [ 5.849012, 14.1002737 ] } },
{ "type": "Feature", "properties": { "name": "Ecole Primaire Madaoua-Garçon", "name:en": null, "amenity": "school", "building": null, "operator:type": null, "capacity:persons": null, "addr:full": null, "addr:city": null, "source": "survey", "name:fr": null, "osm_id": 2433956618, "osm_type": "nodes" }, "geometry": { "type": "Point", "coordinates": [ 5.959126, 14.0771185 ] } },
{ "type": "Feature", "properties": { "name": "Ecole Primaire Madaoua-fille", "name:en": null, "amenity": "school", "building": null, "operator:type": null, "capacity:persons": null, "addr:full": null, "addr:city": null, "source": "survey", "name:fr": null, "osm_id": 2433956619, "osm_type": "nodes" }, "geometry": { "type": "Point", "coordinates": [ 5.9577857, 14.0767403 ] } },
{ "type": "Feature", "properties": { "name": "Ecole Kaoura 1", "name:en": null, "amenity": "school", "building": null, "operator:type": null, "capacity:persons": null, "addr:full": null, "addr:city": null, "source": "survey", "name:fr": null, "osm_id": 3699275611, "osm_type": "nodes" }, "geometry": { "type": "Point", "coordinates": [ 5.2680187, 13.792548 ] } },
{ "type": "Feature", "properties": { "name": "Ecole Abdoun Bouka 2", "name:en": null, "amenity": "school", "building": null, "operator:type": null, "capacity:persons": null, "addr:full": null, "addr:city": null, "source": "survey", "name:fr": null, "osm_id": 3699275608, "osm_type": "nodes" }, "geometry": { "type": "Point", "coordinates": [ 5.2549329, 13.7908949 ] } },
{ "type": "Feature", "properties": { "name": "Ecole Katami Mederssa", "name:en": null, "amenity": "school", "building": null, "operator:type": null, "capacity:persons": null, "addr:full": null, "addr:city": null, "source": "survey", "name:fr": null, "osm_id": 3699275612, "osm_type": "nodes" }, "geometry": { "type": "Point", "coordinates": [ 5.2528437, 13.7803484 ] } },
{ "type": "Feature", "properties": { "name": "Ecole Abdoun Bouka 1", "name:en": null, "amenity": "school", "building": null, "operator:type": null, "capacity:persons": null, "addr:full": null, "addr:city": null, "source": "survey", "name:fr": null, "osm_id": 3699275607, "osm_type": "nodes" }, "geometry": { "type": "Point", "coordinates": [ 5.2549691, 13.7904788 ] } },
{ "type": "Feature", "properties": { "name": "Ecole Gourama", "name:en": null, "amenity": "school", "building": null, "operator:type": null, "capacity:persons": null, "addr:full": null, "addr:city": null, "source": "survey", "name:fr": null, "osm_id": 3699275609, "osm_type": "nodes" }, "geometry": { "type": "Point", "coordinates": [ 5.2523985, 13.7990613 ] } },
{ "type": "Feature", "properties": { "name": "Ecole Katami", "name:en": null, "amenity": "school", "building": null, "operator:type": null, "capacity:persons": null, "addr:full": null, "addr:city": null, "source": "survey", "name:fr": null, "osm_id": 3699275613, "osm_type": "nodes" }, "geometry": { "type": "Point", "coordinates": [ 5.2541095, 13.7804053 ] } },
{ "type": "Feature", "properties": { "name": "Ecole Mederssa 1 Konni", "name:en": null, "amenity": "school", "building": null, "operator:type": null, "capacity:persons": null, "addr:full": null, "addr:city": null, "source": "survey", "name:fr": null, "osm_id": 3699275614, "osm_type": "nodes" }, "geometry": { "type": "Point", "coordinates": [ 5.2528927, 13.7987388 ] } },
{ "type": "Feature", "properties": { "name": "Ecole Mederssa 3 Konni", "name:en": null, "amenity": "school", "building": null, "operator:type": null, "capacity:persons": null, "addr:full": null, "addr:city": null, "source": "survey", "name:fr": null, "osm_id": 3699275615, "osm_type": "nodes" }, "geometry": { "type": "Point", "coordinates": [ 5.2527738, 13.7991453 ] } },
{ "type": "Feature", "properties": { "name": "Ecole Mounwadata 3", "name:en": null, "amenity": "school", "building": null, "operator:type": null, "capacity:persons": null, "addr:full": null, "addr:city": null, "source": "survey", "name:fr": null, "osm_id": 3699275620, "osm_type": "nodes" }, "geometry": { "type": "Point", "coordinates": [ 5.2479221, 13.7822207 ] } },
{ "type": "Feature", "properties": { "name": "C S P Bouro", "name:en": null, "amenity": "school", "building": null, "operator:type": null, "capacity:persons": null, "addr:full": null, "addr:city": null, "source": "survey", "name:fr": null, "osm_id": 3699276829, "osm_type": "nodes" }, "geometry": { "type": "Point", "coordinates": [ 5.252765, 13.8006115 ] } },
{ "type": "Feature", "properties": { "name": "Ecole de Filles", "name:en": null, "amenity": "school", "building": null, "operator:type": null, "capacity:persons": null, "addr:full": null, "addr:city": null, "source": "survey", "name:fr": null, "osm_id": 3699275621, "osm_type": "nodes" }, "geometry": { "type": "Point", "coordinates": [ 5.2526188, 13.7980443 ] } },
{ "type": "Feature", "properties": { "name": "ECOLE GARCON", "name:en": null, "amenity": "school", "building": null, "operator:type": null, "capacity:persons": null, "addr:full": null, "addr:city": null, "source": null, "name:fr": null, "osm_id": 12140295152, "osm_type": "nodes" }, "geometry": { "type": "Point", "coordinates": [ 13.1144947, 14.2576528 ] } },
{ "type": "Feature", "properties": { "name": "LABBEZANGA P/C", "name:en": null, "amenity": "school", "building": null, "operator:type": "public", "capacity:persons": null, "addr:full": null, "addr:city": "Labbezanga", "source": "UNICEF", "name:fr": null, "osm_id": 3079741242, "osm_type": "nodes" }, "geometry": { "type": "Point", "coordinates": [ 0.7018689, 14.9682855 ] } },
{ "type": "Feature", "properties": { "name": "Institut Superieur de Management et de Developpement Rural", "name:en": null, "amenity": "college", "building": null, "operator:type": null, "capacity:persons": null, "addr:full": null, "addr:city": null, "source": null, "name:fr": null, "osm_id": 5274282312, "osm_type": "nodes" }, "geometry": { "type": "Point", "coordinates": [ 5.2930404, 14.884214 ] } },
{ "type": "Feature", "properties": { "name": "École Coranique Daroul-Qur'an", "name:en": null, "amenity": "school", "building": null, "operator:type": null, "capacity:persons": null, "addr:full": null, "addr:city": null, "source": "survey", "name:fr": null, "osm_id": 4414773854, "osm_type": "nodes" }, "geometry": { "type": "Point", "coordinates": [ 7.9829392, 16.9671575 ] } },
{ "type": "Feature", "properties": { "name": "École primaire Obitara", "name:en": null, "amenity": "school", "building": null, "operator:type": null, "capacity:persons": null, "addr:full": null, "addr:city": "Agadez", "source": "survery", "name:fr": null, "osm_id": 5183825621, "osm_type": "nodes" }, "geometry": { "type": "Point", "coordinates": [ 7.9871243, 16.970063 ] } },
{ "type": "Feature", "properties": { "name": "École primaire Dagmannete", "name:en": null, "amenity": "school", "building": null, "operator:type": null, "capacity:persons": null, "addr:full": null, "addr:city": null, "source": null, "name:fr": null, "osm_id": 4914412414, "osm_type": "nodes" }, "geometry": { "type": "Point", "coordinates": [ 7.974827, 16.9649382 ] } },
{ "type": "Feature", "properties": { "name": "École primaire Medersa Dagmannete", "name:en": null, "amenity": "school", "building": null, "operator:type": null, "capacity:persons": null, "addr:full": null, "addr:city": null, "source": null, "name:fr": null, "osm_id": 5182696667, "osm_type": "nodes" }, "geometry": { "type": "Point", "coordinates": [ 7.9743643, 16.9637143 ] } },
{ "type": "Feature", "properties": { "name": "Ecole franco-arabe de Azérori", "name:en": null, "amenity": "school", "building": null, "operator:type": null, "capacity:persons": null, "addr:full": null, "addr:city": null, "source": "survey", "name:fr": null, "osm_id": 2609433793, "osm_type": "nodes" }, "geometry": { "type": "Point", "coordinates": [ 5.9068294, 14.1382398 ] } },
{ "type": "Feature", "properties": { "name": "CEG Arlit", "name:en": null, "amenity": "school", "building": null, "operator:type": null, "capacity:persons": null, "addr:full": null, "addr:city": null, "source": null, "name:fr": null, "osm_id": 11685137832, "osm_type": "nodes" }, "geometry": { "type": "Point", "coordinates": [ 2.3187619, 12.8317344 ] } },
{ "type": "Feature", "properties": { "name": "École Primaire Arlit", "name:en": null, "amenity": "school", "building": null, "operator:type": null, "capacity:persons": null, "addr:full": null, "addr:city": null, "source": null, "name:fr": null, "osm_id": 11685131716, "osm_type": "nodes" }, "geometry": { "type": "Point", "coordinates": [ 2.3173609, 12.8315362 ] } },
{ "type": "Feature", "properties": { "name": "École Madersa Dan zama koira", "name:en": null, "amenity": "school", "building": null, "operator:type": null, "capacity:persons": null, "addr:full": null, "addr:city": null, "source": null, "name:fr": null, "osm_id": 11685154473, "osm_type": "nodes" }, "geometry": { "type": "Point", "coordinates": [ 2.1252349, 13.5761409 ] } },
{ "type": "Feature", "properties": { "name": "CFM Say", "name:en": null, "amenity": "school", "building": null, "operator:type": null, "capacity:persons": null, "addr:full": null, "addr:city": null, "source": null, "name:fr": null, "osm_id": 5057048228, "osm_type": "nodes" }, "geometry": { "type": "Point", "coordinates": [ 2.357371, 13.0939845 ] } },
{ "type": "Feature", "properties": { "name": "École Primaire Sabako", "name:en": null, "amenity": "school", "building": null, "operator:type": null, "capacity:persons": null, "addr:full": null, "addr:city": null, "source": null, "name:fr": null, "osm_id": 11685150013, "osm_type": "nodes" }, "geometry": { "type": "Point", "coordinates": [ 2.3312042, 12.7930593 ] } },
{ "type": "Feature", "properties": { "name": "Ecole primaire Moussadey Fandou", "name:en": null, "amenity": "school", "building": null, "operator:type": null, "capacity:persons": null, "addr:full": null, "addr:city": null, "source": null, "name:fr": null, "osm_id": 5170766084, "osm_type": "nodes" }, "geometry": { "type": "Point", "coordinates": [ 3.1937183, 13.402866 ] } },
{ "type": "Feature", "properties": { "name": "CSP Sabilu Rachad", "name:en": null, "amenity": "school", "building": null, "operator:type": null, "capacity:persons": null, "addr:full": null, "addr:city": null, "source": null, "name:fr": null, "osm_id": 12148543822, "osm_type": "nodes" }, "geometry": { "type": "Point", "coordinates": [ 2.1395353, 13.5451337 ] } },
{ "type": "Feature", "properties": { "name": "école primaire karagou", "name:en": null, "amenity": "school", "building": null, "operator:type": null, "capacity:persons": null, "addr:full": null, "addr:city": null, "source": null, "name:fr": null, "osm_id": 5135483921, "osm_type": "nodes" }, "geometry": { "type": "Point", "coordinates": [ 10.9798626, 13.5161911 ] } },
{ "type": "Feature", "properties": { "name": "Makkaranta", "name:en": null, "amenity": "school", "building": null, "operator:type": null, "capacity:persons": null, "addr:full": null, "addr:city": null, "source": null, "name:fr": null, "osm_id": 6562881408, "osm_type": "nodes" }, "geometry": { "type": "Point", "coordinates": [ 2.1100639, 13.5426149 ] } },
{ "type": "Feature", "properties": { "name": null, "name:en": null, "amenity": "school", "building": null, "operator:type": null, "capacity:persons": null, "addr:full": null, "addr:city": null, "source": null, "name:fr": null, "osm_id": 6535501686, "osm_type": "nodes" }, "geometry": { "type": "Point", "coordinates": [ 2.112592, 13.4805226 ] } },
{ "type": "Feature", "properties": { "name": null, "name:en": null, "amenity": "school", "building": null, "operator:type": null, "capacity:persons": null, "addr:full": null, "addr:city": null, "source": null, "name:fr": null, "osm_id": 2557083311, "osm_type": "nodes" }, "geometry": { "type": "Point", "coordinates": [ 12.9755832, 13.9780574 ] } },
{ "type": "Feature", "properties": { "name": null, "name:en": null, "amenity": "school", "building": null, "operator:type": null, "capacity:persons": null, "addr:full": null, "addr:city": null, "source": null, "name:fr": null, "osm_id": 2557083473, "osm_type": "nodes" }, "geometry": { "type": "Point", "coordinates": [ 13.0299116, 14.0189264 ] } },
{ "type": "Feature", "properties": { "name": null, "name:en": null, "amenity": "school", "building": null, "operator:type": null, "capacity:persons": null, "addr:full": null, "addr:city": null, "source": "knowledge", "name:fr": null, "osm_id": 5072517637, "osm_type": "nodes" }, "geometry": { "type": "Point", "coordinates": [ 3.9435232, 13.6885314 ] } },
{ "type": "Feature", "properties": { "name": null, "name:en": null, "amenity": "school", "building": null, "operator:type": null, "capacity:persons": null, "addr:full": null, "addr:city": null, "source": "knowledge", "name:fr": null, "osm_id": 5072517633, "osm_type": "nodes" }, "geometry": { "type": "Point", "coordinates": [ 3.9672674, 13.6500171 ] } },
{ "type": "Feature", "properties": { "name": null, "name:en": null, "amenity": "school", "building": null, "operator:type": null, "capacity:persons": null, "addr:full": null, "addr:city": null, "source": "knowledge", "name:fr": null, "osm_id": 5072517634, "osm_type": "nodes" }, "geometry": { "type": "Point", "coordinates": [ 3.9638798, 13.6694265 ] } },
{ "type": "Feature", "properties": { "name": null, "name:en": null, "amenity": "school", "building": null, "operator:type": null, "capacity:persons": null, "addr:full": null, "addr:city": null, "source": "knowledge", "name:fr": null, "osm_id": 5072517635, "osm_type": "nodes" }, "geometry": { "type": "Point", "coordinates": [ 3.9568739, 13.7073729 ] } },
{ "type": "Feature", "properties": { "name": null, "name:en": null, "amenity": "school", "building": null, "operator:type": null, "capacity:persons": null, "addr:full": null, "addr:city": null, "source": "knowledge", "name:fr": null, "osm_id": 5072518301, "osm_type": "nodes" }, "geometry": { "type": "Point", "coordinates": [ 3.9860764, 13.7252865 ] } },
{ "type": "Feature", "properties": { "name": "Bouwaye", "name:en": null, "amenity": "school", "building": null, "operator:type": null, "capacity:persons": null, "addr:full": null, "addr:city": null, "source": null, "name:fr": null, "osm_id": 5574801623, "osm_type": "nodes" }, "geometry": { "type": "Point", "coordinates": [ 2.0870069, 13.4927143 ] } },